name,address,city,state,zipcode,phone,hours,email,website,store_front,age_range,deliver,lat,lng,county
LONG BEACH PATIENT GROUP (LBPG),4332 Atlantic Ave,Long Beach,CA,90807,5624244535,MON-SAT 11-8 SUN 11-6,gglbpgreen@gmail.com,,Yes,Yes,,33.835139,-118.18463,Los Angeles
EARTHEART COLLECTIVE OF LONG BEACH,1940 E Del Amo Blvd,Long Beach,CA,90807,5623965356,"MON to THURS 9AM-10PM , FRI 9AM-11PM, SAT  10AM-11PM, SUN 10AM-8PM",eartheartonline@gmail.com,http://eartheartcollectives.com,Yes,Yes,Yes,33.846752,-118.169761,Los Angeles
Another Type Of Green,2613 E 67th St,Long Beach,CA,90805,5626344271,Normal Business Hours:10 am to 8 pm Monday thru Saturday - Sunday CLOSED,AnotherTypeOfGreen@yahoo.com,http://www.anothertypeofgreen.com,Yes,Yes,,33.8765181,-118.1608745,Los Angeles
ELITE HERBAL CENTER,1330 E South St,Long Beach,CA,90805,5624232222,MON-WED+SUN 11AM-7PM THU-SAT 11AM-8PM,eliteherbal@yahoo.com,,Yes,,,33.859842,-118.175622,Los Angeles
Herbal Solutions (Wardlow),1206 E Wardlow Rd,Long Beach,CA,90807,5629972929,7 days: 10:00am - 8:00pm,,http://www.herbalsolutionsca.com,,,,33.8188938,-118.1760722,Los Angeles
Nature's Top Shelf,1530 E Wardlow Rd,Long Beach,CA,90807,5629890000,Mon. to Sat. 11a to 7p,,,,,,33.8188907,-118.1725665,Los Angeles
Green Earth Center 12:20-4:20 DAILY SPECIAL - $15 CAP ON ALL GRAMS EVEN TOP SHELF!!!!,3748 Atlantic Ave,Long Beach,CA,90807,5629890300,MON-SAT: 11AM-8PM SUN:11AM-6PM,compassion@thegreenearthcenter.com,http://thegreenearthcenter.com,Yes,Yes,Yes,33.8258898,-118.1849184,Los Angeles
Herbal Solutions (Carson Street),4311 E Carson St,Long Beach,CA,90808,5624258310,7 days: 10:00am - 8:00pm,,http://www.herbalsolutionsca.com,,,,33.8325144,-118.1419628,Los Angeles
Long Beach Quality Discount Caregivers (LBQDC),1150 E San Antonio Dr,Long Beach,CA,90807,5629888889,OPEN 7 Days: 11am – 8pm,LBQDC@yahoo.com,,Yes,,,33.8405032,-118.1779745,Los Angeles
55 Caps Collective,3120 N. Los Coyotes Diagnol,Long Beach,CA,90808,5625073956,10am-8pm Sun-Thurs 10am-10pm Fri-Sat,capscollective@verizon.net,,Yes,,,33.8197825,-118.1064156,Los Angeles
Alternative Medicine Collective,5543 Atlantic Ave,Long Beach,CA,90805,5626124637,"10am - 10pm Su-TH! 10am-11pm Fr, Sa!",,,,,,33.856982,-118.1850285,Los Angeles
The 562 Collective,3970 Atlantic Ave,Long Beach,CA,90807,5627261654,10 AM to 10 PM,the562collective@live.com,,Yes,Yes,,33.830638,-118.184636,Los Angeles
Long Beach Collective,1734 E Artesia Blvd,Long Beach,CA,90805,5629842520,Mon. to Sat: 10a to 7p & Closed Sunday,,,,,,33.8743679,-118.171163,Los Angeles
Kush Lounge,2622 E South St,Long Beach,CA,90805,3236372672,Mon-Fri 11am-1am Sat/Sun 11am-3am,kushlounge@yahoo.com,,,,,33.8601495,-118.1611341,Los Angeles
One Source Discount Caregivers,5115 Atlantic Ave,Long Beach,CA,90805,5627288529,9am-8pm Daily,,,,,,33.8492028,-118.1851043,Los Angeles
Natures Cure Collective,3925 N Long Beach Blvd,Long Beach,CA,90807,5626121400,11:00 - 7:00 - Everyday,,,,,,33.8293641,-118.1893575,Los Angeles
Canna Collective Long Beach (CCLB),4010 Long Beach Blvd,Long Beach,CA,90807,5624926091,Open 7 Days: 10a to 8p,cclongbeach@gmail.com,,Yes,,,33.831167,-118.188889,Los Angeles
Mr. Green,2461 Long Beach Blvd,Long Beach,CA,90806,5629813756,Mon-Sat 10-8 Sun 11-6,,,Yes,,,33.801915,-118.189785,Los Angeles
Breath of Eden Co-op,5256 N Long Beach Blvd,Long Beach,CA,90805,5624232000,Mon-Fri 10:30am-9:30pm Sat&Sun 11am-7pm,,,Yes,,,33.851499,-118.1954749,Los Angeles
Positive Vibrations Collective,2137 Pacific Ave,Long Beach,CA,90806,5625070985,,positivevibrationscollective@yahoo.com,,,Yes,,33.796102,-118.194068,Los Angeles
Natural Healthcare Patients Group,11 E 53rd St,Long Beach,CA,90805,5626121857,"10a-8pm Mon- Fri, Sat-Sun 11am - 8pm",,,,,,33.8524385,-118.1953824,Los Angeles
Dank Depot  -  $265 Blue Cheese Ounces!,5595 E 7th St,Long Beach,CA,90804,5625976041,10a-8p Everyday,admin@dankdepot.org,http://www.DankDepot.com,Yes,Yes,,33.775557,-118.123468,Los Angeles
Industry Green Collective-   SUNDAY SHOP OPENS AT 11:00,2200 N Lakewood Blvd,Long Beach,CA,90815,5629869400,10am - 8 pm 7 days a week,1ndustrygr33n@gmail.com,http://tinyurl.com/2afcs6b,,Yes,,33.7961168,-118.1426066,Los Angeles
S.H.P.A. Sunshine Holistic Patients Association,678 N Redondo Ave,Long Beach,CA,90814,5624345010,Hours M-Sat 11-8 Sun 11- 6,,http://www.weedmaps.com,,,,33.7749973,-118.1523939,Los Angeles
Cornerstone H&W-Buy (3) 8th's Get (1) FREE! Superman:16.74% THC!,537 West Willow Street  (Across from Chevron),Long Beach,CA,90806,5625957666,M-F 8a-8p; Sat 9a-8p; Sun 9a-5p,mitch@cornerstonemeds.com,http://cornerstonemeds.com,,Yes,,33.8065036,-118.1912538,Los Angeles
Belmont Shore Natural Care  FREE 1/8th to NEW MEMBERS! *with minimum $40 donation*,5375 2nd St. Suite 5 (parking structure entrance on Claremont Ave),Long Beach,CA,90803,5629870210,Daily 10 AM - 8 PM,bshorenaturalcare@yahoo.com,http://belmontshorenaturalcare.com,Yes,Yes,,33.7585789,-118.1307742,Los Angeles
1 Love Beach Club ~4 Gram 1/8s EVERYDAY~$30 1/8s!~Ounce Deals~Edibles~Clones~Daily Specials!,2767 E Broadway,Long Beach,CA,90803,5623435388,Mon-Sat 11-8  Sun 12-5,info@1love420.com,http://www.1love420.com,Yes,,,33.765742,-118.159125,Los Angeles
$35/ $40/ $45 /$50- 8THS on Premium Strains!,1066 E Anaheim St,Long Beach,CA,90813,5623264297,10am - 10pm,2010weed@gmail.com,,Yes,,,33.782306,-118.179007,Los Angeles
Alternative Herbal Health **10% OFF EVERYTHING! NO EXCEPTIONS!**,3702 E Anaheim St,Long Beach,CA,90804,5625971199,10am-8pm 7 Days a week,ahh1380@gmail.com,http://alternativeherbalhealth.com,Yes,,,33.7825769,-118.1491745,Los Angeles
"215 Collective, Inc - The Best Meds in Long Beach",5199 E Pacific Coast Hwy,Long Beach,CA,90804,5622124265,(Mon-Fri 10am-8pm) - (Sat/Sun 11am-5pm),a215collective@yahoo.com,,Yes,,,33.783433,-118.13233,Los Angeles
High Quiggle Healing Center Long Beach,1532 E Broadway,Long Beach,CA,90802,5629513975,M/S 10am - 8pm Sun1pm-8pm,420firestarter@gmail.com,,Yes,,,33.767704,-118.172389,Los Angeles
_One am Natural Solutions,743 E 4th St,Long Beach,CA,90802,5626123836,11- 12:15 am EVERYDAY!,amnaturalsolutions@yahoo.com,,Yes,Yes,,33.771927,-118.182606,Los Angeles
4 The Patients - 50 Cap! Best meds for the lowest prices always!!!,2335 Long Beach Blvd,Long Beach,CA,90806,5624698857,Sunday - Thursday: 10AM - 8PM  Friday - Saturday: 10AM - 10PM,4thepatientslb@gmail.com,,Yes,Yes,,33.7995779,-118.189785,Los Angeles
A Soothing Remedy (SR),1521 W Willow St,Long Beach,CA,90810,5626124388,"Sun. to Thurs. 11a to 8p, Fri. 11a to 4p &Sat 8pm to 11pm",asrc420@gmail.com,,Yes,Yes,,33.804644,-118.212836,Los Angeles
Herbal Solutions Naples,5752 E 2nd St,Long Beach,CA,90803,5624345075,10AM to 8PM 7 Days a week!,,http://www.herbalsolutionsca.com,,Yes,,33.7565758,-118.12181,Los Angeles
CRAZY GREENS AND THINGS,801 E 3rd St,Long Beach,CA,90802,5622004685,10:00am-10:00pm,CRAZYGREENSANDTHINGS@GMAIL.COM,,Yes,Yes,,33.7707059,-118.182158,Los Angeles
Natural Patient Solutions Collective (NPSCLB),957 E 4th St,Long Beach,CA,90802,5624321263,"10am - 12pm 1pm - 10pm Mon. thru Thurs(closed from 12 - 1) 10am - 10pm Fri, Sat, and Sun",npsclb@gmail.com,,,,,33.771742,-118.1798817,Los Angeles
Collective 1515,1515 E Anaheim St,Long Beach,CA,90813,4242090643,11:00 Am - 10:00 Pm,Collective1515@gmail.com,,Yes,Yes,,33.782899,-118.172632,Los Angeles
Dank City-Grower Direct Pricing,2340 E. Pacific Coast Highway Unit F,Long Beach,CA,90804,5624988484,11:00a.m.-8:00p.m.,dankcity420@gmail.com,,Yes,Yes,,33.7806646,-118.1503026,Los Angeles
Long Beach Specialty Health,,Long Beach,CA,,5622181340,M-F 10-8:30 Sat - Sun 11-7,,http://www.lbspecialtyhealth.com,,,Yes,33.7669623,-118.1892348,Los Angeles
AC/GC 316 Collective,316 N Redondo Ave,Long Beach,CA,90814,5622067791,M-S 10-8 S- 10-5,,,Yes,,,33.7686888,-118.1523814,Los Angeles
SOLE Green Express,,Long Beach,CA,90806,5622122080,9am -9pm,iedispensary6@gmail.com,http://iedispensary.com,,Yes,Yes,33.8065036,-118.1912538,Los Angeles
Greenhouse Caregivers (GHC),1428 W Willow St,Long Beach,CA,90810,5622908180,Open  Mon. thru Sat.  From 10-8 Sun. 10-6:30,ghcaregivers@verizon.net,,,,,33.8043053,-118.2115118,Los Angeles
Long Beach Quality Discount Caregivers 2nd St.,5470 E 2nd St,Long Beach,CA,90803,5624390009,10:30am - 8pm,LBQDC2ndst@yahoo.com,,,,,33.757453,-118.127425,Los Angeles
"Long Beach Patient Resource Cooperative, Inc.",404 Ximeno Ave,Long Beach,CA,90814,5628560423,M-Sat 11am-7pm,LBPRC@verizon.net,,,,,33.771963,-118.141359,Los Angeles
Calm & Collective,2515 E Anaheim St,Long Beach,CA,90804,5623983786,Mon-Sat: 10am - 8pm  |  Sunday: 12pm - 6pm,calmandcollective562@gmail.com,,Yes,,,33.782891,-118.161837,Los Angeles
Long Beach Organics (LBO),851 Pine Ave,Long Beach,CA,90813,5624952000,"Mon. to Wed: 10a to 9p, Thurs. to Sat: 10a to 10p, Sun: 11a to 7p",,,,,,33.7773264,-118.1924021,Los Angeles
AAC - Apothecary's Assistants Collective,1355 Redondo Ave,Long Beach,CA,90804,5624986420,8am - 8pm - Everyday,office@aacollective.com,,,,,33.783772,-118.152737,Los Angeles
Final Cut Collective,1175 E Wardlow Rd,Long Beach,CA,90807,5624437742,Monday - Saturday 11am to 8pm; Sunday 12pm to 6pm,,,Yes,,,33.8189645,-118.1768462,Los Angeles
Green Valley Patient Care Center,1561 W Pacific Coast Hwy,Long Beach,CA,90810,5624361400,11am - 8 pm Mon - Sun,greenvalley562@gmail.com,,Yes,,,33.790145,-118.213575,Los Angeles
Green Medi Works (GMW),1088 N Redondo Ave,Long Beach,CA,90804,5624336600,Mon. to Sat: 10am to 8pm & Sun: 10am to 6pm,,,,,,33.7805798,-118.1523952,Los Angeles
Shh,2740 E Broadway,Long Beach,CA,90803,5624384300,Sun to Mon 9am-9pm,shhcollective@gmail.com,,,,,33.765416,-118.159537,Los Angeles
The Giving Tree,1742 E Broadway,Long Beach,CA,90802,5624354420,10am-8pm everyday,,,,,,33.76742,-118.170426,Los Angeles
Starlight Center,333 Pine Ave (formerly American Jeweller),Long Beach,CA,90802,5624372477,M-Sat 12-8; Sun 12 to call,starlight420center@yahoo.com,,,,,33.7573518,-118.2029523,Los Angeles
Kings Club,555 E Ocean Blvd,Long Beach,CA,90802,5624325400,M - F: 10am - 8pm Saturday: 10am - 8pm Sunday: 11am - 7pm,kingsclub@verizon.net,,Yes,,,33.766913,-118.18569,Los Angeles
Green Dot Pharmaceuticals,834 E 4th St,Long Beach,CA,90802,5629835782,Mon-Thur: 9am-12am Fri-Sat: 9am-1am Sun: 11am-7pm,greendot420@verizon.net,,Yes,,,33.77141,-118.181913,Los Angeles
Ballast Collective,501 E Broadway,Long Beach,CA,90802,5625904200,,,,Yes,,,33.7695099,-118.186108,Los Angeles
Da Ma Collective DMC,3319 E 10th St,Long Beach,CA,90804,5623433215,"11A-8P, Mon- Sat, Closed Sun",damacollective@gmail.com,,Yes,,,33.7791443,-118.1530748,Los Angeles
Long Beach Green Room,1735 E 7th St,Long Beach,CA,90813,5625910001,11-7 Mon-Sat 10-6 Sun,greenroom215@gmail.com,,Yes,,,33.7753719,-118.1702891,Los Angeles
Emerald City Collective,2501  Anaheim,Long Beach,CA,90804,5624343065,"M-Sa: 10a-8p, Su: 10a-3p",info@emeraldcitycollective.com,,Yes,Yes,,33.7806646,-118.1503026,Los Angeles
CareMutual Long Beach,110 E Ocean Blvd,Long Beach,CA,90802,5624321600,"Mon thru Fri, 10:00am to 6:00pm * Located in Suite 20",caremutual1@gmail.com,,Yes,Yes,,33.7669285,-118.1922401,Los Angeles
Infinity Medical Alliance,1151 S Robertson Blvd,Los Angeles,CA,90035,3102462399,10a-8p OPEN EVERYDAY,infinitymedical80@gmail.com,,Yes,,,34.05565,-118.383989,Los Angeles
LITTLE AMSTERDAM - Dispensary Collective • Hash Bar • Coffee Shop,2461 S Robertson Blvd,Los Angeles,CA,90034,3108424760,Due to the LA Ordinance we have new hours... OPEN EVERY DAY!!! 12 pm - 8 pm,littleamsterdam@live.com,http://www.somedaminfo.com,Yes,,,34.039492,-118.388364,Los Angeles
Organics Herbal Nutrition Center *$55 CAP on ALL 1/8's,1435 S La Cienega Blvd,Los Angeles,CA,90035,3102890409,M-SAT 11AM-8PM;  SUN 11-6,info@OrganicsHNC.com,http://www.OrganicsHNC.com,Yes,,,34.052191,-118.376468,Los Angeles
Kelly's Collective,8638 W Pico Blvd,Los Angeles,CA,90035,3108545874,12-Oct,kellyscollective@gmail.com,http://www.kellyscollective.org,Yes,,,34.053743,-118.3799,Los Angeles
California Health Remedies,8777 W Pico Blvd,Los Angeles,CA,90035,3107248124,"6 Days a week 10am - 8pm, closed on Saturdays",customersupport@chremedies.com,http://www.chremedies.com,,,,34.054817,-118.38334,Los Angeles
Herbal Solutions (LA),735 N La Brea Ave,Los Angeles,CA,90038,3239334372,7 days: 10:00am - 8:00pm,,http://www.herbalsolutionsca.com,,,,34.0845314,-118.3441596,Los Angeles
SocalCC.com 310-210-1832   Venice  Malibu  Marina Del Rey  Santa Monica,,Venice,CA,90291,3102101832,11am-12am,delivery@socalcc.com,http://www.socalcc.com,,Yes,Yes,33.9962144,-118.4688776,Los Angeles
Venice Marina Del Rey Santa Monica delivery service socalcc.com 310-210-1832,,Santa Monica,CA,90403,3102101832,11am-12am,delivery@socalcc.com,http://www.socalcc.com,,Yes,Yes,34.0279895,-118.495155,Los Angeles
Medical Marijuana Los Angles Delivery,,Beverly Hills,CA,90210,8189159551,24 Hours,villageflora.delivery@gmail.com,http://www.themobileoasis.com/,,Yes,Yes,34.1030032,-118.4104684,Los Angeles
Dank Collective,6130 Wilshire Blvd,Los Angeles,CA,90048,3236921420,11am-9:00pm Everyday!,dankcollective420@gmail.com,,Yes,,,34.062793,-118.363092,Los Angeles
Natures Cure Patient Collective,4577 Valley Blvd,Los Angeles,CA,90032,3232251815,11:30am to 8pm,,,,,,34.062785,-118.184505,Los Angeles
Westwood Organic,1722 Westwood Blvd,Los Angeles,CA,90024,3104411200,9AM - 8PM   Monday - Saturday  11AM - 8PM Sunday,thewestwoodorganic@gmail.com,,Yes,,,34.051464,-118.43803,Los Angeles
Canna Care Relief,1716 S Sepulveda Blvd,Los Angeles,CA,90025,3104734105,Mon-Wed 11am to 8pm Thurs-Sat 11am to 9pm Sun 12pm to 6pm,,,,,,34.047143,-118.443477,Los Angeles
Purelife Alternative Wellness Center,1649 S La Cienega Blvd,Los Angeles,CA,90035,3102469345,Mon-Sat 12pm to 9pm Sun 12pm to 8pm,,,,,,34.047515,-118.376495,Los Angeles
The Farmacy Westwood,1035 Gayley Ave,Los Angeles,CA,90024,3102080820,Mon-Wed 12pm to 8pm Thurs-Sat 12pm to 9pm Sun CLOSED,,,,,,34.0613163,-118.4474495,Los Angeles
Green Oasis,11924 Jefferson Blvd,Los Angeles,CA,90230,3233891899,10am to 10pm,westsidegreenoasis@gmail.com,,Yes,,,33.984681,-118.403305,Los Angeles
Naturally divine wellness,2212 East Cesar E Chavez Avenue,Los Angeles,CA,90033,3233544635,6-Nov,naturallydivine@gmail.com,,,,,34.047419,-118.209892,Los Angeles
L.A. Confidential Caregivers,7263 Melrose Ave,Los Angeles,CA,90046,3232724738,sun-thur 12-10pm  Fri/Sat 10 - 10,peter@laconfidentialcaregivers.com,,,,,34.0835315,-118.3479348,Los Angeles
Gourmet Green Room,2000 Cotner Ave,Los Angeles,CA,90025,3104733509,11a to 2a 7 days a week,,,,,,34.042124,-118.4417396,Los Angeles
Healers on Third,311 S Sweetzer Ave,Los Angeles,CA,90048,3239519612,11AM to 10PM,,,,,,34.0724348,-118.3700649,Los Angeles
San Andrews Green,432 S San Vicente Blvd,Los Angeles,CA,90048,3108550420,11am to 8pm everyday,,,,,,34.0706708,-118.3757656,Los Angeles
Gormet Green Room,2000 Cotner Ave,Los Angeles,CA,90025,3104733509,11am to 8pm,,,,,,34.042124,-118.4417396,Los Angeles
Greener Pastures Caregivers,1101 S Robertson Blvd,Los Angeles,CA,90035,3107441600,Mon- Sat 11am to 12pam Sun 12pm to 12am,,,,,,34.057042,-118.38378,Los Angeles
Farmacopeia Organica,468 S Robertson Blvd,Los Angeles,CA,90211,4243541700,"12 - 8pm tuesday - saturday, 12 - 6pm sunday, and closed monday",,,,,,34.0701867,-118.3837226,Los Angeles
Westside's Finest Collective,3995 Inglewood Blvd,Los Angeles,CA,90066,3106193350,"11a to 8p, 7 days a week",,,,,,34.001933,-118.42584,Los Angeles
RobertSon Caregivers,2515 S Robertson Blvd,Los Angeles,CA,90034,3108377279,Mon-Sat 1pm to 9pm Sun 1pm to 7pm,,,,,,34.0386911,-118.3884188,Los Angeles
HerbalCure Cooperative,11318 W Pico Blvd,Los Angeles,CA,90064,3103125215,10 am to 8pm,,,,,,34.0348399,-118.4393941,Los Angeles
Kush Collective,1111 S La Brea Ave,Los Angeles,CA,90019,3239385874,11am to 7pm,,,,,,34.0548645,-118.3439369,Los Angeles
Westside Holistic Remedy,2346 Westwood Blvd,Los Angeles,CA,90064,3104412800,,,,,,,34.041586,-118.429318,Los Angeles
Little Ethiopia Herbal Healing Center,1051 S Fairfax Ave,Los Angeles,CA,90019,3239344314,Mon. to Sat. 11a to 9p & Sun. 12p to 6p,herbalhealingcenter@gmail.com,,,,,34.0567566,-118.3646242,Los Angeles
Venezia Discount Collective,3018 W Washington Blvd,Marina del Rey,CA,90292,3108273800,10am-10pm,veneziacollective@live.com,,,,,33.9891027,-118.4504378,Los Angeles
Herbal Healing Center HHC,1051 S Fairfax Ave,Los Angeles,CA,90019,3239344314,Mon-Sat 11am to 9pm Sun 12pm to 6pm,,,,,,34.0567566,-118.3646242,Los Angeles
Shiva's Garden Collective,6110 W Pico Blvd,Los Angeles,CA,90035,3236550079,11a to 9p 7 Days a week,,,,,,34.0528376,-118.3742853,Los Angeles
Westside CC,10655 W Pico Blvd,Los Angeles,CA,90064,3104460730,Mon. to Sat: 10a to 8p & Sun: 12p to 8p,,,,,,34.042772,-118.423806,Los Angeles
Foutain oF WellBeing,3835 Fountain Ave,Los Angeles,CA,90027,3236620900,Mon-Sat 11am to 8pm Sun 11am to 5pm,,,,,,34.095994,-118.27707,Los Angeles
JJ Herbal Pharmacy (JJHP),12249 Santa Monica Blvd,Los Angeles,CA,90025,3109793816,Mon. to Sat. 11a to 8p & Sun. 12p to 7p,,,,,,34.0397738,-118.4655681,Los Angeles
Ironworks Collective,4100 Lincoln Blvd,Marina del Rey,CA,90292,3103058425,M-Sa 10-10   Su 11-6,,,,,,33.988333,-118.445318,Los Angeles
AHPS,901 S. La Brea # 3,Los Angeles,CA,90036,3239326263,11am - 12 am,absolute_herbal@yahoo.com,,Yes,,,34.068961,-118.321462,Los Angeles
Cannahelp Caregivers,5027 W Pico Blvd,Los Angeles,CA,90019,3238570204,,,,,,,34.0478135,-118.3468357,Los Angeles
C.H Remedies,8777 W Pico Blvd,Los Angeles,CA,90035,3107248124,Sun- Fri  10 - 8pm,,,Yes,,,34.054817,-118.38334,Los Angeles
Venice Beach Care Center,410 Lincoln Blvd,Venice,CA,90291,3103994307,M-Th  12-8  F-Sa 11-10  Su 11-7,,,,,,34.00079,-118.466121,Los Angeles
California Alternative Caregivers,122 Lincoln Blvd,Venice,CA,90291,8772193809,M-Sa 12-8 Sun 12-7,YourFriends@VeniceDispensary.com,http://VeniceDispensary.com,,,,34.002269,-118.469186,Los Angeles
SocalCC.com 310-210-1832  Malibu Santa Monica Venice,,Malibu,CA,90265,3102101832,11am-12am,delivery@socalcc.com,http://www.socalcc.com,,Yes,Yes,34.0050079,-118.8100893,Los Angeles
"Medical Marijuana Delivery Service Venice, Marina Del Rey, Mar Vista",,Venice,CA,90291,3109101613,10am-10pm,info@medicalmarijuanadeliveryservice.com,http://medicalmarijuanadeliveryservice.com/,,Yes,"MedPotDelivery.com - 4 Gram Eighths - Free Delivery                        
                        Yes",33.9962144,-118.4688776,Los Angeles
99 High Art Collective,1108 Abbot Kinney Blvd,Venice,CA,90291,3104508699,10am to 10pm EVERYDAY!!!,caregivers@99collective.com,,Yes,,Yes,33.9917066,-118.4702239,Los Angeles
Nile Collective Corp,1501 Pacific Ave,Venice,CA,90291,3103929900,11am - 8pm  =7 Days a Week=,,,,,,33.9883132,-118.4727422,Los Angeles
The Farmacy Venice,1509 Abbot Kinney Blvd,Venice,CA,90291,3103923890,"M-W 11-9, Th-Sat 11-10, Sun 12-7",,,,,,33.990448,-118.46434,Los Angeles
The Organic Pharmacy (TOP),11607 Washington Pl,Los Angeles,CA,90066,3109151595,Open 7 Days: 10a to 10p,,,,,,34.0047748,-118.4207228,Los Angeles
Venice Collective,12581 Venice Blvd,Los Angeles,CA,90066,3104370308,Mon. to Sat. 10a to 8p & Sun. 11a to 6p,,,,,,34.0028841,-118.4353664,Los Angeles
Venice Garden Collective,10915 Venice Blvd,Los Angeles,CA,90034,3102020095,Mon-Thurs 9am-9pm. Fri 9am-10pm. Sat 10am-10pm. Sun 10am-6pm,venicegardencollective@gmail.com,,,,,34.01578,-118.4123819,Los Angeles
Natural Remedies Services,76 Market St,Venice,CA,90291,3104504420,11am-9pm. 7 days a week.,,,,,,33.988025,-118.472852,Los Angeles
Green Cure (GC),1716 Main St,Venice,CA,90291,3103065511,11a to 8p 7 days a week,,,,,,33.987535,-118.470471,Los Angeles
"Supplemental Organic Solutions, Inc.",2501 Lincoln Blvd,Venice,CA,90291,3104509141,Open 11-7 Daily,,,,,,33.992015,-118.449462,Los Angeles
California Herbal Remedies,1337 Abbot Kinney Blvd,Venice,CA,90291,3104505077,Mon-Thur 10-8 Fri 10-9 Sat 11-9 Sun 11-7,,,,,,33.991031,-118.466641,Los Angeles
Gourmet Green Room Venice Beach,736 Lincoln Blvd,Venice,CA,90291,3105810600,365 / 10am-2am,,,Yes,Yes,,33.999561,-118.463601,Los Angeles
THC-LAX,11968 S Aviation Blvd,Lawndale,CA,90260,3105368223,11-7 Mon-Sat / Sun 12-5,,,Yes,Yes,,33.8995208,-118.3786734,Los Angeles
LAX COMPASSIONATE CAREGIVERS,203 W Manchester Blvd,Inglewood,CA,90301,3105689602,Mon-Sat 10am-8pm Sun 12-8,lax_cc@yahoo.com,,,,,33.9617787,-118.3574612,Los Angeles
Beach Enlightenment and Compassionate Healing Center,310 Culver Blvd,Playa Del Rey,CA,90293,3108214420,11am to 7pm,,,,,,33.959585,-118.447226,Los Angeles
Los Angeles Medical Caregivers,5589 W Manchester Ave,Los Angeles,CA,90045,3104109954,M-Sa 10-7,,,,,,33.960381,-118.378101,Los Angeles
SBCC,1555 W Sepulveda Blvd,Torrance,CA,90501,3105170420,Mon - Sun 11:30am - 9:00pm,johnsbcc@gmail.com,http://www.twitter.com/cannaclinic,,,,33.8158017,-118.3052843,Los Angeles
South Bay Qualified Patients' Association - 4G eighth 4 all new members FREE DELIVERY WWW.SBQPA.COM,,Lawndale,CA,90503,3107809325,9am-8pm,order@sbqpa.com,http://www.sbqpa.com,,Yes,"SBQPA - 4g eighth 4 all new members - Free Delivery                        
                        Yes",33.887237,-118.3525744,Los Angeles
NO DELIVERY CHARGE 4G 8ths $5 off for new patients 10AM-10PM,,Torrance,CA,90501,3108946337,10AM - 12AM,administrator@beachcitiesmarijuana.com,http://www.beachcitiesmarijuana.com/index.html,,,Yes,33.8291867,-118.3169714,Los Angeles
FREE DELIVERY!!  My Buddy Delivery Service,,Redondo Beach,CA,90278,3102952171,7am - 11 pm Everyday!,weedmaps@mybuddydelivers.com,http://www.mybuddydelivers.com,,,"MyBuddy Delivery Service                        
                        Yes",33.865913,-118.3754131,Los Angeles
NO DELIVERY CHARGE 4G 8ths $5 off for new patients 10AM-10PM,,Manhattan Beach,CA,90266,3108946337,10AM - 12 Midnight,administrator@beachcitiesmarijuana.com,http://www.beachcitiesmarijuana.com,,,Yes,33.8908371,-118.3987842,Los Angeles
Marijuana Delivery Hermosa Beach Manhattan Redondo Torrance PV,,Hermosa Beach,CA,90254,3102729074,9:00AM - 9:00PM,admin@marijuanamarket.com,http://MarijuanaMarket.com,,,"MarijuanaDelivery.com Marijuana Market delivery service                        
                        Yes",33.8633644,-118.395863,Los Angeles
Hawthorne Medical Marijuana Delivery by MPC,,Hawthorne,CA,90250,8884202368,9 AM till 10 PM,MPC@myprivatecollective.com,http://www.MyPrivateCollective.com,,,"My Private Collective (MPC) - Delivery                        
                        Yes",33.9127807,-118.3520389,Los Angeles
NO DELIVERY CHARGE 4Gram 8ths $5 off for new patients 10AM-10PM,,El Segundo,CA,90245,3108946337,10AM - 10PM,administrator@beachcitiesmarijuana.com,http://beachcitiesmarijuana.com,,,"Beach Cities Marijuana Dot Com Delivery                        
                        Yes",33.9150066,-118.4046264,Los Angeles
NO DELIVERY CHARGE 4G 8ths $5 off for new patients 10AM-10PM,,Hermosa Beach,CA,90254,3108946337,10AM - 10PM,administrator@beachcitiesmarijuana.com,http://beachcitiesmarijuana.com,,,Yes,33.8633644,-118.395863,Los Angeles
MarijuanaMarket.com Manhattan Beach Hermosa Redondo Torrance Hollywood Riviera Palos Verdes,,Manhattan Beach,CA,90266,3102729074,EVERYDAY 9am - 9pm,admin@marijuanamarket.com,http://marijuanamarket.com,,,Yes,33.8908371,-118.3987842,Los Angeles
MarijuanaMarket.com marijuana market delivery service Redondo Beach Hermosa Manhattan Torrance,,Redondo Beach,CA,90277,3102729074,9am - 9pm 7 days a week,admin@marijuanamarket.com,http://marijuanamarket.com,,,Yes,33.8303776,-118.3841777,Los Angeles
Delta 9,1321 W Carson St,Torrance,CA,90501,3106183582,10am to 8pm,,,,,,33.831868,-118.300405,Los Angeles
Green Cross of Torrance,1658 W Carson St,Torrance,CA,90501,3105339363,10am to 8pm,,,,,,33.8314642,-118.3072763,Los Angeles
Marijuana Medicine Evaluation Center,15901 Hawthorne Blvd,Lawndale,CA,90260,8002684420,,,,,,,33.8859829,-118.3529717,Los Angeles
Green Guild,26302 S Western Ave,Lomita,CA,90717,3105340013,11:30am - 9:00pm,info@greenguild.info,,Yes,,,33.7836021,-118.3098313,Los Angeles
Medileaf,"1321-B First St...next to ""Rock Zone"" behind Togos",Gilroy,CA,95020,4088472400,11-7pm 7 days,info@medileaf.net,,Yes,,,37.0057816,-121.5682751,Santa Clara
T.H.C. Vermont,14102 S Vermont Ave,Gardena,CA,90247,3105274341,"Open M-Th 10am - 7pm, F-Sa 10-8, Su 11-5",,,,,,33.9041783,-118.2915532,Los Angeles
GOD'S GIFT,8411 S Vermont Ave,Los Angeles,CA,90044,3237533056,11AM-8PM,,,,Yes,,33.9624211,-118.2917694,Los Angeles
Alternative Solutions Collective,7404 S Western Ave,Los Angeles,CA,90047,3237511555,Mon - Sun  10 - 8pm,,,Yes,,,33.972501,-118.30863,Los Angeles
Hollyweed Hollywood,1607 N El Centro Ave,Los Angeles,CA,90028,3234699873,12pm to 12am 7 days a week,info@hollyweed420.com,http://hollyweed420.com/cart/hw_index.php,Yes,,,34.1000965,-118.3238682,Los Angeles
Eden Therapy Collective,6757 Santa Monica Blvd,Los Angeles,CA,90038,3234638937,11am-11pm 365/year!!!!,,,,,,34.0907008,-118.3376675,Los Angeles
Mary Jane's Collective,4901 Melrose Ave,Los Angeles,CA,90004,3234666636,10am - 1am,hollywoodorganix@yahoo.com,http://laorganix.com/,Yes,,,34.083575,-118.3070911,Los Angeles
Hollywood THC  The Hollywood Collective Los Angeles 9am_3am,5322 Sunset Blvd,Los Angeles,CA,90027,3234659513,9AM-3AM,,,Yes,Yes,,34.0981148,-118.3059814,Los Angeles
Grateful Meds,744 N La Brea Ave,Los Angeles,CA,90038,3239399111,NEW HOURS: EVERY DAY 10am-8pm,,http://gratefulmeds.org/,Yes,,,34.0848349,-118.3440311,Los Angeles
Apothecary 420,330 N Western Ave,Los Angeles,CA,90004,3238360420,Mon-Thurs 11am to 8pm Fri-Sat 11am to 10pm Sun 12pm to 6pm,,,,,,34.0771019,-118.308763,Los Angeles
The Farmacy West Hollywood,7825 Santa Monica Blvd,West Hollywood,CA,90046,3238487981,Mon-Sat 10am to 7:45pm Sun 12pm to 7pm,,,,,,34.0908611,-118.3600038,Los Angeles
Colorado Caregivers,1121 Colorado Blvd,Los Angeles,CA,90041,3235508043,11am to 8pm,,,,,,34.137766,-118.190353,Los Angeles
KushMart,6410 Hollywood Blvd,Los Angeles,CA,90028,3234646465,Mon-Sat 11am to 10pm Sun 11am to 7pm,,,,,,34.101285,-118.330122,Los Angeles
Los Angeles Patients & Caregivers Group (LAPCG),7213 Santa Monica Blvd,West Hollywood,CA,90046,3238826033,"Mon-Sat 11-7, Sun 12-7",,,,,,34.0908316,-118.3467373,Los Angeles
The Farmacy,7825 Santa Monica Blvd,West Hollywood,CA,90046,3238487981,"Mon-Sat 10am-8pm, Sunday 12pm-7pm",,,,,,34.0908611,-118.3600038,Los Angeles
Healthy Wealthy and Wise ( H2W ),918 N La Cienega Blvd,Los Angeles,CA,90069,4242049380,12p-8p (Noon to 8pm Daily 7 Days a Week),tim@h2w.org,,Yes,,,34.0876249,-118.3764179,Los Angeles
California Herbal Healing Center,1437 S La Brea Ave,Los Angeles,CA,90019,8774205874,11am-11pm,chhc.meds@gmail.com,,,,,34.0468548,-118.3450776,Los Angeles
Zen Healing,8464 Santa Monica Blvd,West Hollywood,CA,90069,3236566611,11am to 8pm,,,,,,34.0897324,-118.3756572,Los Angeles
LA Organic Pharmacy,4911 Melrose Ave,Los Angeles,CA,90004,3234633920,11am to 8pm,,,,,,34.0835806,-118.3074151,Los Angeles
THe CliniK,7133 W Sunset Blvd,Los Angeles,CA,90046,3237985243,11am-11pm,look4lee420@gmail.com,,Yes,,,34.0979905,-118.3451412,Los Angeles
Western Caregivers Group,467 N Western Ave,Los Angeles,CA,90004,3234645571,11am to 9pm,,,,,,34.0798041,-118.3093209,Los Angeles
The Sunset Super Shop: open everyday,8921 W Sunset Blvd,West Hollywood,CA,90069,3107286200,Mon-Sat 10am-8pm Sun 12pm-7pm,info@thesunsetsupershop.com,,,,,34.0906579,-118.3862448,Los Angeles
Melrose Caregivers,4906 Melrose Ave,Los Angeles,CA,90004,3239577777,11am to 8pm,,,,,,34.0834725,-118.3072477,Los Angeles
Western Medical Caregivers,901 N Western Ave,Los Angeles,CA,90029,3234670497,Mon - Sat   11am-9pm  Sun 11am-3pm,westmedcare@yahoo.com,,,,,34.0866998,-118.3091596,Los Angeles
Canto Diem,5419 Sunset Blvd,Los Angeles,CA,90027,3234654420,na,,,,,,34.0981556,-118.3075293,Los Angeles
Mary J Caregivers,4534 Fountain Ave,Los Angeles,CA,90029,3236670010,10:00 am - 9:00 pm,maryjcaregivers@yahoo.com,,,,,34.0956072,-118.2877339,Los Angeles
Buddha Bar Collective,440 N. La Cienega Blvd,West Hollywood,CA,90069,3106574202,M-S 10-10 SUN 12-8,buddhabarcollective@gmail.com,,Yes,,Yes,34.0887869,-118.3764064,Los Angeles
California Patients' Alliance,8271 Melrose Ave,Los Angeles,CA,90046,3236551735,M-Sa 11-8,,,,,,34.083951,-118.369685,Los Angeles
ATOMIC COLLECTIVE,1771 N Highland Ave,Los Angeles,CA,90028,3234675100,"10am-10pm 7 Days A Week, Including HOLIDAYS",atomiccollective@yahoo.com,,,,,34.1036046,-118.3387143,Los Angeles
The Factory Hollywood,5125 Hollywood Blvd,Los Angeles,CA,90027,3232203711,MON-SAT: 10AM-9PM SUN: 11AM-8PM,thefactoryhollywood@yahoo.com,,Yes,,,34.1018717,-118.3014248,Los Angeles
City Of Angels Wellness Center,6435 W Sunset Blvd,Hollywood,CA,90028,3234662295,Mon-Sat 11-9 & Sun 12-9,,,,,,34.1012181,-118.325739,Los Angeles
Hezekiah Inc.,6051 Hollywood Blvd,Los Angeles,CA,90028,3234676484,10 am to 8 pm Monday Thu Saturday We are closed on Sunday.,,,,,,34.102033,-118.321913,Los Angeles
Sunset Herbal Corner,7225 W Sunset Blvd,Los Angeles,CA,90046,3238515554,,,,,,,34.0981412,-118.3477729,Los Angeles
Herbal Remedies Caregivers,4743 Fountain Ave,Los Angeles,CA,90027,3239130931,Call,,,,,,34.0955529,-118.2926423,Los Angeles
Heaven On Earth Healing,4517 W Sunset Blvd,Los Angeles,CA,90027,3236618894,10am to 9pm,,,,,,34.0981933,-118.2877478,Los Angeles
Hollywood's Compassionate Caregivers Fountain Ave,6002 Fountain Ave,Los Angeles,CA,90028,3234691100,Mon-Wed 10am-10pm Thurs-Sat 10am- 11pm Sun 11am- 6pm,hccfountain@gmail.com,,,,,34.0943228,-118.3202575,Los Angeles
Universal Herbal Center,3177 Cahuenga Blvd W,Los Angeles,CA,90068,3235124372,,info@uhcherbs.com,,,,,34.1281214,-118.3468885,Los Angeles
Studio City Caregivers,3625 Cahuenga Blvd,Studio City,CA,,3238501847,"M- Sa 11-8, Su 12-5",,,,,,34.1432706,-118.3616812,Los Angeles
MHP - Melrose Herbal Pharmacy,7262 Melrose Ave,Los Angeles,CA,90046,3239331906,11 am - 11 pm,mhp@mhpmelrose.com,,Yes,,,34.084832,-118.351572,Los Angeles
Patients' Collective,1617 Cosmo St,Los Angeles,CA,90028,3234646465,daily  11-10,,,,,,34.100477,-118.328981,Los Angeles
Green House Herbal Center,5224 Hollywood Blvd,Los Angeles,CA,90027,3236662591,10am to 9pm,,,,,,34.1016797,-118.3040913,Los Angeles
Divine Discount Center (DDC),5056 Lankershim Blvd,North Hollywood,CA,91601,8185089948,Mon. to Fri. 11a to 8p & Sat. to Sun. 11a to 6p,,,,,,34.1623846,-118.373097,Los Angeles
Natural Remedies Caregivers,1757-1/2 N Western Ave,Los Angeles,CA,90028,3238719500,Mon-Sat 11-8pm  Sun 11-7 pm,,,Yes,,,34.103295,-118.309911,Los Angeles
Sherman Way Holistic Collective,12736 Sherman Way,North Hollywood,CA,91605,8185829400,8-Oct,swhc420@yahoo.cm,,,,,34.2011797,-118.4107364,Los Angeles
Specialty Collectives,11307 Vanowen St,North Hollywood,CA,91605,8183584271,11am-8pm 7days a week,aaronh@specialtycollectives.com,,,,,34.194302,-118.377049,Los Angeles
North Hollywood Compassionate Caregivers,6760 Lankershim Blvd,North Hollywood,CA,91606,8189822334,10a to 10p 7 days a week,,,,,,34.1937913,-118.3877518,Los Angeles
Patients and Caregivers (PAC),6141 Vineland Ave,North Hollywood,CA,91606,8185881307,Mon. to Sat. 10a to 8p & Sun. 10a to 6p,,,,,,34.1823539,-118.370629,Los Angeles
C.C.C.N. California Compassionate Care Network,4720 Vineland Ave,North Hollywood,CA,91602,8189806337,11am to 9pm 7 days a week,,,,,,34.1561474,-118.3702054,Los Angeles
North Hollywood Healing Center (NHHC),12517 Oxnard St,North Hollywood,CA,91607,8187623766,8 am - 8 pm,nhhc420@yahoo.com,,,,,34.1794248,-118.4059859,Los Angeles
Kush House Care,6446 Lankershim Blvd,North Hollywood,CA,91606,8187665874,10am - 11pm,kushhousecare@gmail.com,,,,,34.188109,-118.387365,Los Angeles
Natural Choice Healing Center,6006 Vantage Ave,North Hollywood,CA,91606,8183582620,7 days a week 11am-8pm,naturalchoicehealingcenter@gmail.com,http://www.NaturalChoiceHealingCenter.com/,Yes,,,34.179721,-118.39741,Los Angeles
No Ho Herbal Medicine,12032 Vose St,North Hollywood,CA,91605,8187655933,10:30a to 10p 7 days a week,,,,,,34.198181,-118.395372,Los Angeles
Divine Wellness Center,5056 Lankershim Blvd,North Hollywood,CA,91601,8185089948,Mon-Fri 11am-9pm | Sat 10am-8pm | Sun 10am-7pm,divinewellnesscenter@gmail.com,,,,,34.1623846,-118.373097,Los Angeles
Universal Medical Caregivers Los Angeles collective dispensary north hollywood,3441 Cahuenga Blvd W,Los Angeles,CA,90068,3235123002,10am-8pm 7days,thebestmedicalpot@gmail.com,,,,,34.1322324,-118.3532348,Los Angeles
AM Organic Solutions,7248 Fulton Ave,North Hollywood,CA,91605,8187645200,Mon. to Thurs. 10a to 9p & Fri. to Sat. 10a to 11p & Sun. 10a to 6p,,,,,,34.2026377,-118.4225054,Los Angeles
NoHo 5656,5656 Cahuenga Blvd,North Hollywood,CA,91601,8184040358,Mon. to Thurs: 10a to 10p & Fri. to Sat: 10a to Midnight & Sun: 11a to 8p,,,,,,34.1737269,-118.3615466,Los Angeles
Harmony House Collective,11651 Sherman Way,North Hollywood,CA,91605,8189824420,"Sun- Thurs, 11 -8p, Fri-Sat, 11a-10p",,,,,,34.201514,-118.386364,Los Angeles
TLC,11436 Hatteras St,North Hollywood,CA,91601,8187528420,na,,,,,,34.175607,-118.380387,Los Angeles
Vanowen Caretivers,11232 Vanowen St,North Hollywood,CA,91605,8189803600,9AM-8PM,vanowen.caregivers@gmail.com,,,,,34.1939327,-118.3760546,Los Angeles
Patients Against Pain,6240 Laurel Canyon Blvd,Los Angeles,CA,91606,8187527274,10am to 8pm,,,,,,34.184454,-118.3962647,Los Angeles
Valley Holistic Caregivers,7200 Vineland Ave,Sun Valley,CA,91352,8182555511,11am-8pm 7 days a week,,,Yes,,,34.201597,-118.369813,Los Angeles
Herb Doc HD,11024 Victory Blvd,North Hollywood,CA,91606,8187604004,Mon-Thr 11 am- 9 pm Fr-Sun 11 am-10 pm,,,,,,34.1861109,-118.371211,Los Angeles
Taylor's Joynt,5653 Cahuenga Blvd,North Hollywood,CA,91601,,na,,,,,,34.1737202,-118.3615935,Los Angeles
Studio City Medical Marijuana Patient Collective,4707 Whitsett Ave,Studio City,CA,91604,8184871887,Mon-Sun 11am to 8pm,,,,,,34.156163,-118.4052431,Los Angeles
MedX  Collective,441 E 16th St,Los Angeles,CA,90015,2137466256,Open Seven Days A Week 10:00AM to 8:00PM,medx441@gmail.com,,,Yes,,34.0310917,-118.258055,Los Angeles
The Kush Doc Los Angeles,106 E 17th St,Los Angeles,CA,90015,8775258743,"11am-7pm M-F, 12pm-5pm Saturday, Closed Sunday",kushdoc215@gmail.com,,Yes,,,34.032782,-118.2631394,Los Angeles
"Holistic Healing Alternatives Donation 35,40,42,45,50,55 an 1/8th",1400 S Olive St,Los Angeles,CA,90015,2137464445,M-S 11am-7pm Sun 11am -5pm,,,,Yes,,34.03656,-118.2642611,Los Angeles
City Compassionate Caregivers,606 E. 4th St.,Los Angeles,CA,90013,2132217086,10 am to 8pm,,,,Yes,,34.043925,-118.2424291,Los Angeles
MedGo Delivery Service,,Los Angeles,CA,90004,3232022807,Mon - Sat :10am - 10pm (Last calls at 9pm)  Sunday 12 - 8,MedGo420@gmail.com,http://twitter.com/MedGo,,Yes,"MedGo Delivery Service                         
                        Yes",34.0748887,-118.3082034,Los Angeles
Olive Tree Collective ~ FREE Gram for New 1st Time Patients! ~ Near Pershing Square Downtown LA,643 S Olive St,Los Angeles,CA,90014,2136272940,"Mon-Fri 11-7, Sat 11-5",olivetree215@gmail.com,,Yes,Yes,,34.0471371,-118.2551377,Los Angeles
Downtown Collective,1600 S Hill St,Los Angeles,CA,90015,2137465420,11am to 8pm M-SAT,,,Yes,,,34.034366,-118.264466,Los Angeles
My Private Collective (MPC),,Los Angeles,CA,90048,8884202368,9 AM till 10 PM,MPC@myprivatecollective.com,http://www.myprivatecollective.com,,,Yes,34.0713986,-118.376189,Los Angeles
New Era Caregivers,1238 S Flower St,Los Angeles,CA,90015,2137477969,mon-fri 10am-8pm sun-11am-7pm,unprofessiona1@aol.com,,Yes,,,34.040413,-118.265977,Los Angeles
SocalCC.com   310-210-1832    Venice    Marina Del Rey    Santa Monica,,Marina del Rey,CA,90292,3102101832,11am-12am,delivery@socalcc.com,http://www.socalcc.com,,Yes,Yes,33.9802893,-118.4517449,Los Angeles
Canna Health Caregivers,5208 W Pico Blvd,Los Angeles,CA,90019,3237438070,"10 to 8 Mon-Sat, 10 to 7 Sun",chc.cannahealth@gmail.com,,,Yes,,34.04787,-118.351992,Los Angeles
Downtown Patients Group D.T.P.G,1753 S Hill St,Los Angeles,CA,90015,2137473386,Mon-Sat 11am to 8pm Sun 10am to 6pm,,,,,,34.0335735,-118.2654897,Los Angeles
Downtown Natural Caregivers (DNC),312 Wall St,Los Angeles,CA,90013,2136250301,Open 7 Days: 11a to 9p,,,,,,34.0477106,-118.2438943,Los Angeles
Sunset Organic Center,2210 Sunset Blvd,Los Angeles,CA,90026,2139087442,10a to 11p 7 days a week,,,,,,34.0785346,-118.2670594,Los Angeles
Nature's Wonder Caregivers Group Inc.,1330 W Olympic Blvd,Los Angeles,CA,90015,2133805874,,,,,,,34.0476707,-118.2709187,Los Angeles
La Brea Collective,812 South la Brea Boulevard,Los Angeles,CA,90036,3239393374,Noon-Midnight 7 days per week,,,,,,34.078592,-118.344379,Los Angeles
Korea Town Collective,3567 W 3rd St,Los Angeles,CA,90004,2133842403,M-Sa 11-10  Su 12-10,,,,,,34.069249,-118.293793,Los Angeles
Vermont Herbal Center,955 S Vermont Ave,Los Angeles,CA,90006,2133875203,7am to 9pm 7 day a week,,,,,,34.0538482,-118.2918682,Los Angeles
California Caregivers Alliance,2815 W Sunset Blvd,Los Angeles,CA,90026,2133530100,M-Sa 10-8  Su 11-8,,,,,,34.0821928,-118.2720388,Los Angeles
Holistic Harvest - the best of the harvest,3511 W Olympic Blvd,Los Angeles,CA,90019,3237668865,M-SAT 11am-8pm  -  Sun 12-5pm,holistic.harvest@att.net,http://www.h-h-la.com,,,,34.05296,-118.315199,Los Angeles
Soto St. Collective,1260 S Soto St,Los Angeles,CA,90023,3232628288,11am to 8pm,,,,,,34.0265542,-118.2195671,Los Angeles
MELROSE COMPASSION CENTER,654 N Manhattan Pl,Los Angeles,CA,90004,3234668700,M-F 11AM TO 9PM SUN. 12PM TO 5PM,INFO@MCC420.COM,,,,,34.083184,-118.309914,Los Angeles
Absolute Herbal Pain Solutions,901 S La Brea Ave,Los Angeles,CA,90036,3239326263,Mon. to Sun. 11a to 12a,,,,,,34.058672,-118.345783,Los Angeles
Higher Living LA Cooperative Corporation,,Los Angeles,CA,90023,2137250681,9 am - 8 pm,higherlivingla@gmail.com,,,,Yes,34.0224471,-118.2000277,Los Angeles
420 Grand Caregivers,2802 S Grand Ave,Los Angeles,CA,90007,2137481992,Open 7 Days: 11a to 8p,,,,,,34.0241165,-118.2737471,Los Angeles
Therapeutic Recovery Collective,608 N Hoover St,Los Angeles,CA,90026,3236655006,"Please, call",therapeuticrecovery@gmail.com,,,,,34.0819734,-118.284424,Los Angeles
Herbal Medicine For You (HMFY),2637 Whittier Blvd,Los Angeles,CA,90023,3232642224,Open 7 Days: 10a to 7p,,,,,,34.0329551,-118.2124664,Los Angeles
Hyperion Healing,1913 Hyperion Ave,Los Angeles,CA,90027,3239531913,12pm to 7pm,,,,,,34.0975967,-118.2755598,Los Angeles
Adams Green Herbal Caregivers,2603 S Normandie Ave,Los Angeles,CA,90018,3237328717,10am to 10pm,,,,,,34.032389,-118.300589,Los Angeles
BEST QUALITY HERBAL MEDICINE,1833 E Vernon Ave,Los Angeles,CA,90058,3232331779,M-S:10-7 SUN:10-6,bestquality@yahoo.com,http://everything420.com/BestQualityHerbal,,,,34.0040255,-118.2404106,Los Angeles
Divine Healing,2501 W Sunset Blvd,Los Angeles,CA,90026,2133530402,MON - SAT 11:00am - 10:00pm  SUN 12:00pm - 6:00pm,DivineHealingCollective@gmail.com,,,,,34.079927,-118.269049,Los Angeles
L.A. Wonderland Caregivers,4410 W Pico Blvd,Los Angeles,CA,90019,3239364410,,,,,,,34.0480469,-118.3307769,Los Angeles
THC Ministry So Cal,420 W Pico Blvd,Los Angeles,CA,90015,,,,http://www.myspace.com/thcministrysocal,Yes,,,34.0391679,-118.2650244,Los Angeles
KKC Collective,2214 S Vermont Ave,Los Angeles,CA,90007,3237332581,10a to 10p 7 days a week,,,,,,34.0355795,-118.291386,Los Angeles
Herbal Love Downtown (HLDT),4120 S Broadway,Los Angeles,CA,90037,,Mon. to Sat. 11a to 9p & Sun. 12p to 8p,,,,,,34.008524,-118.277974,Los Angeles
Cafe 420,4285 Crenshaw Blvd,Los Angeles,CA,90008,3232994420,M-Thu 10-10pm F-Sun 10-12am,cafe420la@gmail.com,,,,,34.0057547,-118.3342544,Los Angeles
Adams/Hill Discount Center,2602 S Hill St,Los Angeles,CA,90007,2134408595,,,,,,,34.0255771,-118.2709459,Los Angeles
S L  Caregivers,201 W Olympic Blvd,Los Angeles,CA,90015,2134871700,M-Sa 10-8  Su 11-7,,,,,,34.041956,-118.256257,Los Angeles
Living Earth Wellness Center,4207 W Pico Blvd,Los Angeles,CA,90019,3239365000,11am to 7:30pm,,,,,,34.0478536,-118.3271163,Los Angeles
At Downtown Wellness Center,312 W Olympic Blvd,Los Angeles,CA,90015,2137463355,11am to 7pm,,,,,,34.0416879,-118.2586112,Los Angeles
Bluegate Collective ~  FREE GRAM for 1st Time Patients!!,3428 Whittier Blvd,Los Angeles,CA,90023,3232633009,"Mon-Sat 11-8, Sun 11-7",bluegate215@yahoo.com,,Yes,Yes,,34.027046,-118.200202,Los Angeles
AMCC Covina,20050 E Arrow Hwy,Covina,CA,91724,6267320200,11-7 daily,,,,,,34.1063789,-117.862158,Los Angeles
My Private Collective MPC - West Covina Marijuana Delivery,,West Covina,CA,91791,1888420,9 AM till 10 PM,MPC@myprivatecollective.com,http://www.MyPrivateCollective.com,,,Yes,34.0566376,-117.8956062,Los Angeles
House of Kush,1632 Colorado Blvd,Los Angeles,CA,90041,3232595874,Sun-Thurs 11-10   Fri & Sat 11-12,,,Yes,,,34.139106,-118.202183,Los Angeles
California Herbal Remedie,5468 Valley Blvd,Los Angeles,CA,90032,3233429110,M-TH 10-9 F-Su 10-8,,,,,,34.073399,-118.163822,Los Angeles
Medical Caregivers Association,4344 Eagle Rock Blvd N,Los Angeles,CA,90041,3235515874,11am to 8pm,,,,,,34.1232878,-118.2219102,Los Angeles
Organic Healing Center,1733 Colorado Blvd,Los Angeles,CA,90041,3232577200,"Mon-Sat 11am - 10pm, Sun 11am - 7pm",,,,,,34.1394419,-118.2055743,Los Angeles
Tender Love Collective (TLC),2439 Riverside Dr,Los Angeles,CA,90039,3236602542,Mon-Sat 11AM-8PM / Sun 12PM-6PM,TenderLove_collective@yahoo.com,,,,,34.1053309,-118.2553289,Los Angeles
Pico Collective,1355 S Genesee Ave,Los Angeles,CA,90019,3236581303,Daily 10 to 9,info@picocollective.com,,,,,34.0511134,-118.3632347,Los Angeles
House of Kush Collective,1632 Colorado Blvd,Los Angeles,CA,90041,3232595874,S-Th 11a-10p F&Sa 11a-12a,houseofkush@gmail.com,,,,,34.139106,-118.202183,Los Angeles
United Herbal Center,2703 W 8th St,Los Angeles,CA,90005,2137397038,Mon-Fri 11am to 10pm Sat 12pm to 10pm Sun 12pm to 9pm,,,,,,34.0577475,-118.2846052,Los Angeles
Today's Holistic Collective (626) 918-1500,1359 N Hacienda Blvd,La Puente,CA,91744,6269181500,Mon-Sat 10-7 Sun 12-5,thc@todaysholisticcollective.com,http://www.facebook.com/pages/manage/#!/pages/La-Puente-CA/Todays-Holistic-Collective/131440186889202?ajaxpipe=1&__a=7,Yes,Yes,,34.0450154,-117.9491198,Los Angeles
Trinity Wellness Center - 626.369.3300 - La Puente,15747 Amar Rd,La Puente,CA,91744,6263693300,9-Oct,lapuentedispensary@gmail.com,http://www.google.com/profiles/LaPuenteDispensary,Yes,,,34.036967,-117.941658,Los Angeles
La Puente Collective,824 N Hacienda Blvd,La Puente,CA,91744,6267234163,10am - 7 pm  sunday 12pm-5pm,lapuentecollective@gmail.com,,Yes,,,34.034097,-117.949744,Los Angeles
Good People Collective (626)968-5000,1038 N Hacienda Blvd,La Puente,CA,91744,6269685000,Mon-Sat 10AM-7PM - Sun.12PM--5PM,jimmy@gpmembers.com,,,Yes,,34.0382982,-117.9497058,Los Angeles
Natural Choice,1651 N Hacienda Blvd,La Puente,CA,91744,6269177499,Mon.- Sat. 10am-7pm; Sun. 12pm-5pm,cvaletta@aol.com,,,Yes,,34.0499,-117.946236,Los Angeles
LA PUENTE CO-OP,15524 Amar Rd,La Puente,CA,91744,6267234218,MON-SAT:10:00 am - 7:00 pm SUN 12pm-5pm,lpcoop420@gmail.com,,,Yes,,34.0368611,-117.9467865,Los Angeles
The Herbal Connection,,Alhambra,CA,91801,3235169016,10am - 12 am,halosmoker420@gmail.com,,,,Yes,34.0837958,-118.1181199,Los Angeles
Azusa Patient Remedies,393 S Azusa Ave,La Puente,CA,91744,6268393883,Mon-Sat 10AM to 7PM Sun 12PM to 5PM,Azusapatient@yahoo.com,,,Yes,,34.0157736,-117.9214703,Los Angeles
San Gabriel Valley Compassionate Care,1718 Potrero Ave.  Unit I (all the way at the end of the driveway),South El Monte,CA,91733,6264443420,11 am - 7 pm Mon - Sat; Closed Sunday,SGVCC@att.net,,Yes,Yes,,34.0519548,-118.0467339,Los Angeles
Green Comfort Collective,15420 Fairgrove Ave,La Puente,CA,91744,6263439039,"NEW HOURS 10.A.,M-8P.M..$50cap Donation",GreenComfortCollective@yahoo.com,,Yes,,,34.0420348,-117.9486759,Los Angeles
The Eco Compliance Collective,11938 E Washington Blvd,Santa Fe Springs,CA,90670,5629452403,11-7 Mon-Sun,ecocompliancecollective@gmail.com,,Yes,,,33.9685722,-118.056855,Los Angeles
THC 2,15416 W Francisquito Ave,La Puente,CA,91744,6269191999,10 TO 7 MONDAY THRU SATURDAY AND 12 TO 5 SUNDAYS,,,Yes,Yes,,34.0493969,-117.948089,Los Angeles
Farm Assist Caregivers,21450 Golden Springs Dr,Diamond Bar,CA,91789,9094689200,Mon - Sat 11am - 7pm,,,,,,34.000933,-117.836577,Los Angeles
Farm Assist Remedies Ministry,2112 Rosemead Blvd,South El Monte,CA,91733,6264424400,Mon - Sat 11:00am-7:00pm,,,,,,34.053111,-118.06368,Los Angeles
Natural Selection Collective,,La Puente,CA,91746,6263692102,10am-8pm,,,,,Yes,34.0438404,-117.9893301,Los Angeles
Marijuana Medicine Evaluation Center,13200 Crossroads Pkwy N,Industry,CA,91746,8002684420,,,,,,,34.0301029,-118.012713,Los Angeles
Therapetic Herbal Clinics,14322 Valley Blvd,Industry,CA,91746,8778464322,,,,Yes,,,34.038196,-117.9796069,Los Angeles
Santa Fe Compassionate Health Center ~ SFCHC,13128 Telegraph Rd,Santa Fe Springs,CA,90670,5629411111,Sat-Thurs(10-8) Fri-10-9,,http://www.sfchc.net,Yes,,,33.941246,-118.05265,Los Angeles
"Santa Fe Springs Dispensary, CA",13844 E. Rosecrans Avenue,Santa Fe Springs,CA,90670,5629218300,10:00am to 08:00pm DAILY,tricitypatientsassociation@yahoo.com,,,,,33.9414796,-118.0712981,Los Angeles
CBN Cannabis Delivery Collective,,La Habra,CA,90631,5623381256,MONDAY: 8PM-12PM  TUESDAY: CLOSED  WEDNESDAY: 8PM-12PM  THURSDAY: CLOSED  FRIDAY: 8PM-12PM  SATURDAY: 8PM-12PM  SUNDAY: CLOSED,c.b.n.collective@hotmail.com,http://www.cbncollective.webs.com/,,Yes,Yes,33.9319578,-117.9461734,Orange
The East Group,12150 Bloomfield Ave,Santa Fe Springs,CA,90670,5629298028,M-Sat 11-8 Sun 11-6,theeastgroup420@gmail.com,,,,,33.920798,-118.062562,Los Angeles
AP Natural Solutions,9841 Alburtis Ave,Santa Fe Springs,CA,90670,5629919393,M-F 11am-9pm  Sat/Sun 11am - 6pm,alexperezmj@gmail.com,,,,,33.948318,-118.084198,Los Angeles
The Springs,11703 Los Nietos Rd,Santa Fe Springs,CA,90670,5626998960,Mon - Sat 11am-8pm,,,,,,33.958162,-118.072164,Los Angeles
3P Wellness Center,11331 La Mirada Blvd,Whittier,CA,90604,5623215973,,threepwellnesscenter@yahoo.com,http://www.3pwc.com,Yes,Yes,,33.9282305,-118.0118784,Los Angeles
420 Go Green,12145 Slauson Ave,Santa Fe Springs,CA,90670,5626966500,11am - 10pm Mon-Sun,gogreensfs@gmail.com,,Yes,Yes,,33.9621587,-118.0569016,Los Angeles
Discount Collective of Santa Fe Springs,11823 Slauson Ave,Santa Fe Springs,CA,90670,5629451450,11a to 7p 7 days a week,,,,,,33.965137,-118.061915,Los Angeles
Organix,10338 Painter Ave,Santa Fe Springs,CA,90670,5623479611,Su-Th 11:30pm-9:00pm; Fri-Sat 11:30pm-10:00pm,,,,Yes,,33.9424881,-118.0513445,Los Angeles
Ohana Wellness Center,8807 Pioneer Blvd,Santa Fe Springs,CA,90670,5626996800,10am-10pm,ohanaplanet@gmail.com,,,Yes,,33.963546,-118.083714,Los Angeles
Medical Marijuana Delivery Pasadena Eagle Rock Emerald Bliss,,Pasadena,CA,91101,8888092797,10am-10pm daily,emeraldbliss1@gmail.com,http://www.emeraldbliss.org/,,,"Emerald Bliss Medical Marijuana Delivery Pasadena                         
                        Yes",34.1427587,-118.1386005,Los Angeles
SGV Dispensary,,San Gabriel,CA,91775,6262627877,9a.m.-9p.m.,getwell@sgvdispensary.com,http://sgvdispensary.com,,Yes,Yes,34.1148393,-118.0859313,Los Angeles
Releaf Central: Medical Marijuana Delivery of Pasadena,,Pasadena,CA,91106,8189296045,9:00 am - 10:00 pm,info@releafcentral.com,http://www.releafcentral.com,,,"Releaf Central: Medical Marijuana Delivery of Pasadena                        
                        Yes",34.1405433,-118.1268976,Los Angeles
GEC DELIVERY,,Los Angeles,CA,90042,3239829042,10am-5pm,Gecdelivery@gmail.com,http://gecdelivery.com/,,Yes,Yes,34.1175895,-118.188329,Los Angeles
American Eagle Collective,2501 Colorado Blvd,Los Angeles,CA,90041,3237390215,Mon. to Fri: 9a to 9p & Sat. to Sun: 11a to 7p,,,,,,34.14177,-118.22111,Los Angeles
Eagle Rock Herbal Collective,4729 Eagle Rock Blvd N,Los Angeles,CA,90041,3232574420,"Open M-Sa 11-9,   Su 11-6",,,,,,34.1310332,-118.2165827,Los Angeles
Marijuana Medicine Evaluation Center,600 N Brand Blvd,Glendale,CA,91203,8002684420,,,,,,,34.155011,-118.254401,Los Angeles
Global Meds Collective,3425 Glendale Blvd,Los Angeles,CA,90039,3239530565,Mon. to Thurs: 10a to 10p & Fri. to Sat: 10a to 1a & Sun: 10a to 8pm,,,,,,34.1206324,-118.258349,Los Angeles
South Gate Herbal Healing Center,13194 Paramount Blvd,South Gate,CA,90280,5626341354,Mon-Sat 11:00am-8:00pm Sun 11:00am-6:00pm,,,,,,33.91518,-118.157907,Los Angeles
LACRC,5720 E Imperial Hwy,South Gate,CA,90280,3235153952,11 am - 8 pm Everyday,mngdelivery@GMAIL.COM,,Yes,,,33.929971,-118.1688112,Los Angeles
Exclusive Caregivers Los Angeles Cannabis Club,2157 W Century Blvd,Los Angeles,CA,90047,3237542209,Mon-Sat: 10:00 AM - 9:00 PM       Sun: 1:00 PM - 9:00 PM,info@exclusivecaregivers.org,,,,,33.94576,-118.317425,Los Angeles
Therapeutic Herbal Care,9968 Lakewood Blvd,Downey,CA,90240,5628612195,Mon-Sat 10am-9pm Sun 11am-6pm,dankherbal@gmail.com,,,,,33.9489836,-118.116288,Los Angeles
Marijuana Medicine Evaluation Center,333 N Lantana St,Camarillo,CA,93010,8002684420,,,,,,,34.219468,-119.055276,Ventura
Compassionate Patient Resources Collective,19237 Ventura Blvd,Tarzana,CA,91356,8189964277,Mon - Sun  10am-8pm,cprcollective@gmail.com,,,Yes,,34.1726477,-118.5525453,Los Angeles
Need Some TLC Free Delivery!,,Calabasas,CA,91302,8888906852,10-8pm,socal215@rocketmail.com,http://www.needsometlc.com,,,Yes,34.1383333,-118.6608333,Los Angeles
Woodland Hills Treatment Center,5338 Alhama Dr,Woodland Hills,CA,91364,8188848338,Mon.-Sun. 10AM till 8PM,contact@whtcla.com,,Yes,,,34.1663558,-118.5929761,Los Angeles
Boulevard Collective,19709 Ventura Blvd,Woodland Hills,CA,91364,8187101166,Mon. to Fri: 10a to 10p & Sat. to Sun: 11a to 9p,,,,,,34.172844,-118.562807,Los Angeles
Global Health Center,22323 Sherman Way,Canoga Park,CA,91303,8188841028,"Mon-Thur 10AM-8PM, Fri-Sat 10am-9pm, Sun- 11am-8pm",ghccanogapark@yahoo.com,,,,,34.201803,-118.612726,Los Angeles
Topanga Caregivers,6457 Topanga Canyon Blvd,Canoga Park,CA,91303,8187169200,Mon-Thur-11:00am-8:00pm,,,,,,34.1881154,-118.6059295,Los Angeles
KB Center Compassion Care,9960 Canoga Ave,Los Angeles,CA,91311,8185769877,12pm to 8pm,,,,,,34.25157,-118.596712,Los Angeles
Conejo Wellness Center,30101 Agoura Rd,Agoura Hills,CA,91301,8188658085,10am - 8pm,info@conejowellnesscenter.com,,,,,34.1450914,-118.7809665,Los Angeles
The Hills Caregivers,20000 Ventura Blvd,Woodland Hills,CA,91364,8189993265,Sun-Thurs 11am to 8pm Fri-Sat 11am to 9pm,,,,,,34.171508,-118.568623,Los Angeles
New Age Compassion Care Center,19720 Ventura Blvd,Woodland Hills,CA,91364,8186108019,Su-Th 12-8  F-Sa 12-10,,,Yes,,,34.171905,-118.563277,Los Angeles
Herbal Solutions Collective (HSC),22728 Ventura Blvd,Woodland Hills,CA,91364,8187041300,Mon. to Sat. 11a to 8p & Sun. 12a to 7p,,,,,,34.1662139,-118.621471,Los Angeles
Marijuana Medicine Evaluation Center,20350 Ventura Blvd,Woodland Hills,CA,91364,8002684420,na,,,,,,34.168811,-118.575824,Los Angeles
ThT,18013 Ventura Blvd,Encino,CA,91316,8188811462,Mon- Sat 9:30- 8pm   Sun 11-6pm,,,Yes,,,34.1647706,-118.5248044,Los Angeles
One Love Medical Caregivers,19709 Ventura Blvd,Woodland Hills,CA,91364,8187130258,,,,,,,34.172844,-118.562807,Los Angeles
BALBOA CAREGIVERS - We are one of the original 187 shops. We will not be closing!,16900 Sherman Way,Van Nuys,CA,91406,8189020201,Mon-Sat 10am to 8pm Sun 10am to 5pm,Balboacaregivers@yahoo.com,http://www.balboacaregivers.com/,Yes,Yes,,34.200795,-118.501489,Los Angeles
Delta 9,7648 Van Nuys Blvd,Van Nuys,CA,91405,8189971003,"Monday - Saturday 10 am - 8 pm, Sunday 10-3 pm",delta9office@yahoo.com,http://d9collective.com,Yes,,,34.2091005,-118.4487508,Los Angeles
Lake Balboa Collective,17616 Sherman Way,Van Nuys,CA,91406,8186090119,Mon. to Sat: 10a to 10p & Sun: 11a to 9p,,,,,,34.200764,-118.517093,Los Angeles
H.I.N.T. CAREGIVERS,13616 Victory Blvd,Van Nuys,CA,91401,8187814440,Mon-Sat  11-10 Sundays 10-6,hintcaregivers@live.com,,,,,34.1866456,-118.4300529,Los Angeles
HOUSE OF KUSH & CLONES RESEDA,,Reseda,CA,91335,8183396576,9AM TO 9PM,,,,,Yes,34.2035088,-118.5389414,Los Angeles
BEST MEDS FACTORY,7301 Sepulveda Blvd,Van Nuys,CA,91405,8187872428,MON-SAT 10-9PM SUN 10-8PM,BESTMEDSFACTORY@YAHOO.COM,,,,,34.203224,-118.466642,Los Angeles
Discount Relief Collective - Temporarily Closed,6309 Van Nuys Blvd,Van Nuys,CA,91401,8188466751,monday - saturday 11am-8pm sunday 12pm-7pm,drcollective@gmail.com,,,,,34.1850598,-118.4487369,Los Angeles
NATURE'S NATURAL COLLECTIVE CARE INC,6951 Reseda Blvd,Reseda,CA,91335,8183441102,coming soon,,,,,,34.197203,-118.536454,Los Angeles
"Redmoon, Inc,",14350 Oxnard St,Van Nuys,CA,91401,8189976912,"Open M-Sa 10-8, Su 10-6",,,,,,34.179103,-118.44618,Los Angeles
SUITE 215,Privare Membership,Van Nuys,CA,91406,8187875215,M-Sat 11AM -8PM SUN 11AM - 6PM,,,,,,34.1985119,-118.4980744,Los Angeles
The Green Earth Farmacie,6811 Woodman Ave,Van Nuys,CA,91405,8189941045,10 a.m.  -  2 a.m.,thegreenearthfarmacie@gmail.com,,,,,34.1942471,-118.4312775,Los Angeles
Kushism,7555 Woodley Ave,Van Nuys,CA,91406,8189943446,Mon-Fri 10a to 9p  Sat and Sun 11am to 6pm,kushism420@hotmail.com,,,,,34.2081727,-118.4836896,Los Angeles
Humboldt Relief,6670 Reseda Blvd,Reseda,CA,91335,8183000020,mon-fri 10am-8:30pm sat 12noon-7:30pm,Humboldtrelief@yahoo.com,,,,,34.19204,-118.535561,Los Angeles
Happycation - Temporarily Closed,6740 Reseda Blvd,Reseda,CA,91335,8187573574,Mon. to Fri. 10a to 10p & Sat. & Sun. 10a to 7p,happycation420@gmail.com,,,,,34.193478,-118.535612,Los Angeles
Mother Nature's Remedy,17302 W Saticoy St,Van Nuys,CA,91406,8183456337,Su-F 10-10 Sa 10-5,mother@mothernaturesremedy.com,,,,,34.2084479,-118.492613,Los Angeles
True Healing Collective,7329 Reseda Blvd,Reseda,CA,91335,8187056780,Mon. to Fri. 10a to 10p & Sat. to Sun. 11a to 9p,,,,,,34.203884,-118.536449,Los Angeles
UNIVERSAL CAREGIVERS INC,13611 Sherman Way,Van Nuys,CA,91405,8189889333,Mon-Sat 10-8 Sundays 10-6,UNIVERSALCARE@ATT.NET,,,,,34.201013,-118.426781,Los Angeles
LAHC,11101 Ventura Blvd,Studio City,CA,91604,8185066364,12pm to 9pm 7 days a week,,,,,,34.141512,-118.372003,Los Angeles
Herbal Valley Caregivers (HVC),17718 Sherman Way,Reseda,CA,91335,8183420420,Mon-Sat: 10am-8pm / Sunday 10am-6pm,fourtwentyhvc@gmail.com,,,,,34.2010396,-118.5192379,Los Angeles
Le Pew,12990 Branford St,Pacoima,CA,91331,8182521418,"Mon - Fri : 10am - 9pm, Sat - Sun : 11am - 8:30pm",,,,,,34.2390201,-118.4157544,Los Angeles
California Organic Collective - Temporarily Closed,15345 Parthenia St,Los Angeles,CA,91343,8188939900,8am - 9pm Daily.,california.organic@yahoo.com,,,,,34.2282935,-118.4670096,Los Angeles
reliable relief collective,7125 Lindley Ave,Reseda,CA,91335,8188814420,m-sat 11 am-10 pm sun 12-8,,,,,,34.2002635,-118.5273478,Los Angeles
Boo-Ku,6817 Sepulveda Blvd,Van Nuys,CA,91405,8189089255,Mon. to Sat. 11a to 9p & Sun. 11a to 6p,,,,,,34.1944931,-118.4662121,Los Angeles
KVC,7537 Reseda Blvd,Reseda,CA,91335,8187577378,10am-10pm,,,,,,34.207685,-118.536422,Los Angeles
No Stress Collective - Temporarily Closed,9005 Sepulveda Blvd,Los Angeles,CA,91343,8188105864,Mon. to Thurs. 11a to 9p & Fri. to Sat. 11a to 10p & Sun. 12p to 9p,,,,,,34.2338949,-118.46831,Los Angeles
420 Discount Caregivers,14841 Burbank Blvd,Van Nuys,CA,91411,8189046797,Mon-Sat 11am to 9pm Sun 12pm to 8pm,,,,,,34.1721323,-118.456751,Los Angeles
DURMAN CAREGIVERS,16045 Sherman Way,Van Nuys,CA,91406,8189080669,MON-SAT 11:00AM-8:00PM  SUN-11:00AM-6:00PM,DURMANINC@YAHOO.COM,,,,,34.2011056,-118.4828871,Los Angeles
Safe Harbor Patients Collective,5953 Hazeltine Ave,Van Nuys,CA,91401,8189020015,daily  11-7,,,,,,34.178923,-118.440309,Los Angeles
818 Collective,7232 Sepulveda Blvd,Van Nuys,CA,91405,8184420200,9a to 9p 7 days a week,,,,,,34.201998,-118.4661701,Los Angeles
Kester Caregivers,6817 Kester Ave,Van Nuys,CA,91405,8189886600,10a to 10p 7 days a week,,,,,,34.1943817,-118.457477,Los Angeles
Love & Spirit Co-op,1236-1/4 N Cahuenga Blvd,Los Angeles,CA,90038,8187539200,Mon-Fri 10AM-9PM Sat-Sun 11AM-8PM,,,,,,34.093625,-118.327975,Los Angeles
Always 420,16119 Sherman Way,Van Nuys,CA,91406,8189011442,M-Sa 11-9  Su 12-8,,,,,,34.2015249,-118.484454,Los Angeles
Medical Herbs,7122 Reseda Blvd,Reseda,CA,91335,8183428889,Mon. to Sat. 10a to 9p & Sun. 10a to 6p,,,,,,34.2001526,-118.5360237,Los Angeles
PSCC,6322 Vesper Ave,Van Nuys,CA,91411,8183761160,mon - sun: 10am-8pm,primeselectioncaregivers@gmail.com,,,,,34.1853057,-118.4508782,Los Angeles
"Herbal 420 Caregivers, Inc.- Temporarily Closed",5963 Van Nuys Blvd,Van Nuys,CA,91401,8187860844,Monday - Saturday 10:00AM to 9:30PM,herbal420caregiver@att.net,,,,,34.1792106,-118.4487319,Los Angeles
Our Green Planet Collective,14624 Victory Blvd,Van Nuys,CA,91411,8183768512,Sun-Thurs. 11am to 10pm  Fri-Sat 11am to 1am,ourgreenplanet@att.net,,,,,34.186343,-118.451907,Los Angeles
Sherman Oaks Collective Care,14200 Ventura Blvd,Sherman Oaks,CA,91423,8187838332,Mon-Sat 10am to 8pm Sun 11am to 6pm,,,,,,34.149453,-118.442108,Los Angeles
FOLK REMEDIES FACTORY - Temporarily Closed,11203 Glenoaks Blvd,Pacoima,CA,91331,8188348304,M - F 11am - 8pm / Sat 10am - 8pm / Sun 10am - 5pm,folkremedies@verizon.net,,,,,34.273731,-118.412253,Los Angeles
Kush Corner Collective (KCC),7135 Kester Ave,Van Nuys,CA,91405,8185682202,Mon. to Thurs. 10a to 11p & Fri. to Sun. 10a to 9:30p,,,,,,34.2004361,-118.4574781,Los Angeles
Sun Valley Caregivers,11000 Randall St,Sun Valley,CA,91352,8185042661,,,,,Yes,,34.2382807,-118.369764,Los Angeles
Greenlight Discount Pharmacy,15507 Cobalt St,Sylmar,CA,91342,8182561964,Mon-Sat 11am to 7pm Sun 11am to 5pm,,,,,,34.3069011,-118.4697186,Los Angeles
Green Moon Healing Center (GMHC) - Temporarily Closed,12737 Glenoaks Blvd,Sylmar,CA,91342,8183671397,mon - sat 9a - 8p | sun 10a - 7p,,,,,,34.301508,-118.442622,Los Angeles
HHC/HLA,8942 Woodman Ave,Arleta,CA,91331,8184538085,10AM-8PM,hlacollective@gmail.com,,Yes,Yes,,34.232628,-118.437957,Los Angeles
Natural Health Supply - Temporarily Closed,505 San Fernando Mission Blvd,San Fernando,CA,91340,8188120818,,,,,,,34.282218,-118.4456637,Los Angeles
ORANGE COUNTY PATIENTS COLLECTIVE / First Time Patient Specials!,15142 Jackson St.,Westminster,CA,92683,7148928647,"Mon-Sat 11:00-8:00, Sun 11:00-6:30",ocpatientscollective@yahoo.com,http://orangecountypatientscollective.com,Yes,Yes,,33.7592412,-117.9875772,Orange
Chron2theDo-Sun.7:02AM Give  5 cans of food Help the homeless! Get a 1/2 gram added to your order!!!,,Fullerton,CA,92833,7144992374,Everyday 8:00am-10:30pm,fhurst1st@gmail.com,http://www.chron2thedo.org,,Yes,Yes,33.8749591,-117.9659037,Orange
HILLSIDE MEDICAL DELIVERY-SAT-1:35P.M.-HELP THE HOMELESS GET 1/2 GRAM WITH YOUR ORDER !!,,Fullerton,CA,92833,7149836664,10A.M.- 10P.M. EVERYDAY,hillsidemedicaldelivery@gmail.com,http://www.hillsidemedical.org,,Yes,"Hillside Medical Delivery                        
                        Yes",33.8749591,-117.9659037,Orange
Delivery is Free to all of O.C.!! Platnum Evil Bubba!! Orange Kush! Purple Diesel!!,,La Habra,CA,90631,7143424215,"9 to 9 except Sat and Sun, By appointment only!!",,http://www.pro215.com/,,Yes,Yes,33.9319578,-117.9461734,Orange
Clean Green,6622 Westminster Blvd,Westminster,CA,92683,7148977319,11:00 A.M.-11:00 P.M. 7 Days a week,cgcwestminster@gmail.com,,Yes,Yes,,33.758741,-118.013216,Orange
Physis NC,1211 W Imperial Hwy,Brea,CA,92835,7146809500,Mon-Sat 10AM-8PM. - Sun 12PM-6PM,info@physisnc.com,http://www.physisnc.com,,Yes,,33.9173889,-117.9171943,Orange
5 Star Care Collective - 8 grams $100 All strains,,Buena Park,CA,90620,7144991178,9 a.m. to 9 p.m. / 7 days a week,FiveStarCareCollective@yahoo.com,http://legalmarijuanadispensary.com,,Yes,Yes,33.8428724,-118.0127534,Orange
BORG - TOP QUALITY  INDOOR  STRAINS OF MEDICINE.,210 Hospital Cir,Westminster,CA,92683,7148975599,Mon-Sat 10:30-8 and Sunday 12-7,borgcoop@gmail.com,,Yes,Yes,,33.762133,-117.994426,Orange
Rite Greens- Now open at 7:00 AM! *First time patients get a free gram plus spin the prize wheel!*,1801 E Edinger Ave,Santa Ana,CA,92705,7145587167,7am-9pm Mon-Sat  Sun 11am-8pm,ritegreens@att.net,http://www.ritegreens.com,Yes,,,33.727298,-117.842319,Orange
"PACIFIC ISLAND CARE - Huntington Beach, Garden Grove, Long Beach, Seal Beach",14022 Edwards St,Westminster,CA,92683,7148988652,"M - Sa 11am-8pm, Sun 12pm - 6pm",info@pacislandcare.com,,Yes,Yes,,33.758504,-118.015533,Orange
MedMar Collective,14020 Rancho Ave,Westminster,CA,92683,7148937777,12pm - 8pm,medmarcollectivewest@gmail.com,http://www.medmarcares.com,Yes,,,33.7586208,-118.0300562,Orange
Southern California Compassionate Sanctuary (SCCS),,Yorba Linda,CA,92886,7148093384,9am-9pm,greensanctuary@hotmail.com,http://www.sccs1.org,,,Yes,33.9011405,-117.7959713,Orange
HOPE Delivery 4 gram 1/8,,Westminster,CA,92683,7144789932,7 Days A Week,HopeDelivery@gmail.com,,,,"HOPE Delivery                        
                        Yes",33.759183,-118.0067271,Orange
Organic Garden,Call 714- 675- 5329 for directions and preverification.,Anaheim,CA,92804,7146755329,11am - 10pm,og.collective@yahoo.com,,Yes,Yes,Yes,33.8132409,-117.9659037,Orange
215DELIVERIES.COM - Orange County,,Huntington Beach,CA,92648,7142924202,"10am-10pm, 7 Days a Week",215deliveries@gmail.com,http://www.215deliveries.com/,,,"215Deliveries.com - Orange County                        
                        Yes",33.6781963,-118.0127534,Orange
WeeDeliverFree.Org~Ask your primary Doctor to talk to us! If we get them to agree your rec. is free!,1001 W Chapman Ave,Fullerton,CA,92832,7149279535,DAILY 8:00 AM - 9:00PM,freeride@weedeliverfree.org,http://www.WeeDeliverFree.Org,Yes,,"WeeDeliverFree.Org - We're here to help you!                        
                        http://www.WeeDeliverFree.Org                        
                        Yes",33.8738571,-117.942024,Orange
CaregiversExpress.com,,Fullerton,CA,92832,7149828810,Mon - Sun 10am -7pm,staff@caregiversexpress.com,http://www.CaregiversExpress.com,,,Yes,33.8733037,-117.9307584,Orange
202 MEDS,6765 Westminster Blvd,Westminster,CA,92683,7142026337,,202MEDS@gmail.com,,Yes,,,33.761294,-118.008522,Orange
Medical-Marijuana.com - DELIVERY throughout CA,MAILING ADDRESS listed at http://medical-marijuana.com,Fresno,CA,93703,7144884610,,info@medical-marijuana.com,http://www.medical-marijuana.com/,Yes,,Yes,36.7687871,-119.7599761,Fresno
North County Patients Collective Association,2361 W Whittier Blvd,La Habra,CA,90631,5626919100,Mon-Thur. 10am-9pm    Fri-Sat. 10am-10pm    Sun. 11am-8pm,,,,,,33.9398639,-117.9727683,Orange
Chill (Collectively Healing the Ill),Beach Blvd,Westminster,CA,92683,9495547175,,,,,,,33.7483678,-117.9894091,Orange
Beach Quality Caregivers,7852 Bolsa Ave,Midway City,CA,92655,7148995874,Monday-Saturday 10am-8pm Sunday 10am-6pm,beachcaregivers@yahoo.com,,,,,33.7442939,-117.991792,Orange
GreenLife 420 Caregivers,7032 Hazard ave #7 (Hazard & Goldenwest Behind 7-11 store),Westminster,CA,92683,5624506193,Open 7 days a week 11:30am-8:00pm,info@greenlife420caregivers.com,,,,,33.759183,-118.0067271,Orange
My Own Remedies,,Orange,CA,92856,7144926113,10 A.M. to 10 P.M.,infor@myownremedies.org,,,,Yes,33.79,-117.88,Orange
UTOPIA COLLECTIVE GROUP,7822 Westminster Blvd,Westminster,CA,92683,7145124110,,Utopiacollective@yahoo.com,,Yes,,,33.758945,-117.992582,Orange
Synchronicity Street,15112 Adams St,Midway City,CA,92655,7144216605,M-Sat,synchronicitystreet@yahoo.com,,,Yes,,33.7430297,-117.9883526,Orange
P.O.T- Tested and proven quality...ENOUGH SAID! Setting Standards for whats to come,3148 E La Palma Ave,Anaheim,CA,92806,7146328812,10 am -9 pm  7 Days a week,info@potpca.com,http://potpca.com,Yes,,,33.8513993,-117.855829,Orange
Mid-County Patients Association (MCPA),3164 E La Palma Ave,Anaheim,CA,92806,7146306272,10am to 8pm  7 days,mcpagroup@att.net,http://midcountypatients.org/,Yes,Yes,,33.85015,-117.854256,Orange
"Green City Collective... 1st time patiens receive ""FREE GRAM"" of our choice minimum gram donation",1671 W Katella Ave,Anaheim,CA,92802,7146359600,Mon-Sat.10am-10pm & Sun.10am-6pm,greencityinc@yahoo.com,http://www.facebook.com/home.php?#!/pages/Anaheim-CA/Green-City-Collective/272789020218?ref=ts,,,,33.8032483,-117.9404091,Orange
Rite Greens- Now open at 7:00 AM! *First time patients get a FREE gram plus spin the prize wheel!*,1801 E Edinger Ave,Santa Ana,CA,92705,7145587167,7am to 9pm Mon-Sun,ritegreens@att.net,http://www.ritegreens.com,Yes,Yes,,33.727298,-117.842319,Orange
Anaheim Palliative Care Center,1125 N Magnolia Ave,Anaheim,CA,92801,7148215874,Mon to Sat 11am to 8pm Sundays 12pm to 6pm,admin@anaheimpalliativecarecenter.com,http://www.anaheimpalliativecarecenter.com,,Yes,,33.847975,-117.976728,Orange
PAMA - Patient Alternative Medicine Association - HOURS 10-8 EVERY DAY; Anaheim Hills,4506 E La Palma Ave,Anaheim,CA,92807,7144084466,10-8 EVERY DAY,Info@ocpama.com,http://www.ocpama.com/,Yes,,,33.859169,-117.818024,Orange
ANAHEIM HERBAL HEALING CENTER,126 N Brookhurst St,Anaheim,CA,92801,7148604080,MON-SAT 10AM-8PM / SUN 11AM-7PM,AHHCCENTER@GMAIL.COM,,,,,33.8337656,-117.9587627,Orange
A.M.C - American Medical Co-Op,1100 E Orangefair Ln,Anaheim,CA,92801,7146805874,11 am - 8pm Sunday 11am-7 pm,qasem_mahd@yahoo.com,,,Yes,,33.855564,-117.907779,Orange
HILLSIDE MEDICAL DELIVERY-SAT-1:35P.M.-HELP THE HOMELESS GET 1/2 GRAM WITH YOUR ORDER !!,,Fullerton,CA,92833,7149836664,10AM TO 10PM EVERYDAY,hillsidemedicaldelivery@gmail.com,http://www.hillsidemedical.org,,Yes,"Hillside Medical Delivery                        
                        Yes",33.8749591,-117.9659037,Orange
SOCCA - You will not find this high of a quality med for such a low donation anywhere,,Anaheim,CA,92805,8663213459,7 Days A Week,Info@bestmeds.org,http://bestmeds.org/,,,Yes,33.8276052,-117.9073244,Orange
"Patients Choice Collective Association - 17th St., SA",1535 E 17th St,Santa Ana,CA,92705,7148367222,10am - 9pm Every day,info@patientschoicecollective.net,http://www.patientschoicecollective.net/,Yes,Yes,,33.760239,-117.846293,Orange
CALICCG-Where Discretion is our profession!,,Anaheim,CA,92807,7142724585,10am to ?,donations@caliccg.com,http://www.caliccg.com,,Yes,Yes,33.8413699,-117.7666567,Orange
215DELIVERIES.COM - Orange County,,Anaheim,CA,92805,7142924202,"10am-10pm, 7 Days a Week",215Deliveries@gmail.com,http://www.215deliveries.com/,,,"215Deliveries.com - Orange County                         
                        Yes",33.8276052,-117.9073244,Orange
ORANGE COUNTY WELLNESS SERVICES,2000 W Lincoln Ave,Anaheim,CA,92801,7146355101,M-Sat 10:30-8:00 Sun 11:00-6:00,jon@ocwellnessservices.com,http://wellnesssservices.com,Yes,Yes,,33.832443,-117.9542936,Orange
Orange County Health and Wellness Center,110 N Tustin Ave,Anaheim,CA,92807,7142798010,"11am-8pm, 7 days a week",orangecountyhealthandwellness@gmail.com,,Yes,,,33.8431708,-117.8329412,Orange
OC Confidential,1230 N Jefferson St,Anaheim,CA,92807,7147576830,10am to 8pm,staff@oc-confidential.com,,Yes,,,33.8620966,-117.8370026,Orange
Call The Doc,1616 S Clementine St,Anaheim,CA,92802,7148080176,10AM - 8PM,callthedoc714@yahoo.com,,Yes,,,33.8084939,-117.9098566,Orange
Four Twenty Savior,710 S Brookhurst St,Anaheim,CA,92804,7149835689,MON-SUN 10-7,fourtwentysavior.oc@gmail.com,,,,,33.82202,-117.958338,Orange
420 Primary Caregivers,231 N Brookhurst St,Anaheim,CA,92801,7147583500,12pm to 6pm,,,,,,33.834948,-117.95932,Orange
Next Dimension,1025 E Katella Ave,Anaheim,CA,92805,7143858148,10-8 everyday,QoLCoopinc@gmail.com,,Yes,,,33.8034304,-117.8974149,Orange
Eco Friendly Solutions,1811 W Katella Ave,Anaheim,CA,92804,7142718240,11am-8pm,,,Yes,,,33.803719,-117.946415,Orange
California Patients Association - CPA / NUGGETRY,1201 E 17th St,Santa Ana,CA,92701,7145425600,Mon-Sat 10-9 / Sun 10-6,info@cpa420.com,http://www.cpa420.com,Yes,Yes,,33.7600147,-117.8538708,Orange
Go N' Green: IS MOVING BACK TO 17TH St SOON...stay tuned for more info,1801 E Edinger Ave,Santa Ana,CA,92705,7147660420,10 am - 10 pm 7 DAYS A WEEK,info@gngreen.com,http://www.gngreen.com,Yes,Yes,Yes,33.727298,-117.842319,Orange
Premium Green: FRESH EDIBLES IN NOW!!! NEW MENU!! NEW LOW DONATIONS!!,"1905  E. 17 Street, Santa Ana, CA 92705 (-SUITE 201 - 2nd FL-)",Santa Ana,CA,92705,7148350500,OPEN 7 DAYS A WEEK 11AM- 9PM,info@premiumgreenpca.com,http://premiumgreenpca.com/index.html,Yes,Yes,,33.7455731,-117.8678338,Orange
Healing OC *2 grams for $20* limited time- $55 Cap on EVERYTHING! 4.0 gram 1/8ths all day everyday!*,1665 E 4th St,Santa Ana,CA,92701,7148354206,11 A.M.-9 P.M. Everyday,healingoc@gmail.com,http://www.healingoc.com,Yes,Yes,,33.748449,-117.844364,Orange
Rite Greens- Now open at 7:00 AM! *First time patients get a free gram plus spin the prize wheel!*,1801 E Edinger Ave,Santa Ana,CA,92705,7145587167,7am-9pm Mon-Sun,ritegreens@att.net,,Yes,Yes,,33.727298,-117.842319,Orange
CLUB MEDS- VOTED BEST IN OC!!!,1015 W 1st St,Santa Ana,CA,92703,9498259815,10am - 9pm M-Sat. 10-7 Sun,,,Yes,Yes,,33.7456228,-117.8781524,Orange
SoCal Compassion,1651 E Edinger St Ste 209 (Up Stairs),Santa Ana,CA,92705,7144171322,See Below for details!!,socalcompassion@gmail.com,,Yes,Yes,,33.7455731,-117.8678338,Orange
$45 CAP American Patient Collective,2550 N Grand Ave,Santa Ana,CA,92705,7147448206,10AM - 10PM,americanpatientcollective.apc@gmail.com,,,Yes,,33.7714438,-117.8524739,Orange
Aloha Community Collective Assc. $10 Kush Grams!!,2112 E 4th St,Santa Ana,CA,92705,7148341234,10 AM TO 7 PM DAILY,alohacca@yahoo.com,http://www.thedopeman.com,Yes,,,33.7481165,-117.8358946,Orange
"OCPC, New Strains Just In,$15G 4PM-8PM,"" $45-$50 CAP ON ALL EIGHTS**55fwy & Dyer",1921 Carnegie Ave,Santa Ana,CA,92705,9497526272,"M-SA 11am-8pm, Sun 11am- 6PM",xocpcx@yahoo.com,http://orangecountyspatientcare.com/index.html,Yes,Yes,,33.712549,-117.840972,Orange
"(40+ Strains, 20+ Concentrates) The Natural Alternative Patient Association",1665 E 4th St,Santa Ana,CA,92701,7148349900,10am-7pm,TheNaturalAlternative215@yahoo.com,,,,,33.748449,-117.844364,Orange
Cool Calm - 50 CAP - MEMBER APPRECIATION,1820 E Garry Ave,Santa Ana,CA,92705,9497341841,10:30am  to 11:00pm 7 Days A Week,director.coolcalm@gmail.com,,Yes,Yes,,33.704186,-117.852756,Orange
CannaCare Wellness Center,1401 N Tustin Ave,Santa Ana,CA,92705,7146670600,11 AM - 8 PM,CannaCareWellness@gmail.com,http://www.CannaCareWellness.org,Yes,,,33.757354,-117.833438,Orange
"New Menu! Quality, Compassionate 50cap!",1102 W 17th St,Santa Ana,CA,92706,7146480195,M-TH 10 am - 8 pm Fri-Sat 10 am - 9 pm Sun 11 am - 7 pm,AMG@AMGSA.org,,Yes,Yes,,33.7599431,-117.8811036,Orange
Greenway Healing Center,2720 S Bristol St,Santa Ana,CA,92704,7145454040,"M-F 10am-9pm, Sat 10am-7pm, Sun 11am-5pm",Greenwayhealingoc@gmail.com,,Yes,Yes,Yes,33.7105223,-117.8855024,Orange
Green Coast Wellness is now Coastal Collective,2001 E 4th St,Santa Ana,CA,92705,7145422277,11am - 8pm Mon-Sat; 11am - 6pm Sun,greencoastwellness@gmail.com,http://www.greencoastwellness.com,Yes,,,33.74863,-117.838605,Orange
GanjaVana OPEN UNTIL 12AM!  ATM ON SITE! $55 CAP  New patient gets 4 GRAMS w/ 1/8 donation AND SPIN!,1535 E. 17th St.  (#201)  *Parking Behind Building!,Santa Ana,CA,92705,8184861395,10AM-12AM OR LATER,ganjavana@yahoo.com,http://www.ganjavana.com,Yes,Yes,,33.7455731,-117.8678338,Orange
USA Collective,1850 E 16th St,Santa Ana,CA,92701,7145477077,,,,Yes,Yes,,33.7589283,-117.8408979,Orange
Patients Choice Collective Association - 25% OFF ALL XXX EDIBLES ALL DAY SUNDAY!!!,1535 E 17th St,Santa Ana,CA,92705,7148367222,10am - 9pm Every day,info@patientschoicecollective.net,http://www.patientschoicecollective.net/,Yes,Yes,,33.760239,-117.846293,Orange
SOCCA - You will not find this high of a quality med for such a low donation anywhere,,Santa Ana,CA,92704,8663213459,7 Days A Week,Info@bestmeds.org,http://bestmeds.org/,,,Yes,33.7246333,-117.9073244,Orange
Access OC Central - Santa Ana,1833 E 17th St,Santa Ana,CA,92705,7149722000,Monday - Saturday 11-8 Closed Sunday,e.accessoccentral@gmail.com,http://www.accessoccentral.com,Yes,Yes,,33.760435,-117.840968,Orange
OC WeedLinks - Knowledgeable & Friendly Volunteers,,Anaheim,CA,92806,7145201789,10am to 7pm Daily,donations@ocweedlinks.com,,,,Yes,33.8362104,-117.8721676,Orange
CWA  Collective - JULY 19TH FREE GRAM no minimum donation- - SUITE 104,"1651 E. Edinger, Suite 104 (down stairs)",Santa Ana,CA,92705,7145640988,"11am-7pm M-Sat, Sunday 11-4 PM",ryanf@compassionatewellnessalternative.org,,Yes,Yes,Yes,33.7455731,-117.8678338,Orange
215DELIVERIES.COM - Orange County,,Santa Ana,CA,92701,7142924202,"10am-10pm, 7 Days a Week",215deliveries@gmail.com,http://www.215deliveries.com/,,,"215Deliveries.com - Orange County                        
                        Yes",33.7463915,-117.8604472,Orange
Patients Premium Collective,1900 E Warner Ave,Santa Ana,CA,92705,7147202735,"M -F: 12-8, S-S: 12-5",ppc420@gmail.com,,,,,33.712549,-117.840972,Orange
Peace & Harmony Collective,1535 E 17th St,Santa Ana,CA,92705,7142459393,Tues.-Fri 11:00AM-12:00AM Sat. 11:00AM-7:00PM Sun 12:00-6:00PM,phcollective@yahoo.com,,,,,33.760239,-117.846293,Orange
Santa Ana Patient Group,1823 E 17th St,Santa Ana,CA,92705,7145680041,Mon.- Sat. 11am- 8pm... Sun. 11am-6pm,,,Yes,,,33.760437,-117.841374,Orange
Orange Co. Patient Group Collective,2315 E 17th St,Santa Ana,CA,92705,7145472525,Mon-Fri 10am to 7:45pm Sat-Sun 11am to 6:45pm,,,,,,33.760115,-117.83339,Orange
Marijuana Medicine Evaluation Center,1125 E 17th St,Santa Ana,CA,92701,8002684420,,,,,,,33.761458,-117.854696,Orange
Santa Ana Medicinal Collective,1651 E Edinger Ave,Santa Ana,CA,92705,7145471373,7 Days a Week! 11am-7pm,,,,,,33.726982,-117.845496,Orange
Orange Coast Premier Collective,3619 W Pendleton Ave,Santa Ana,CA,92704,7145917000,Mon. - Thu. 11AM-8PM Fri. - Sat. 11AM-9PM Sun. 11AM-6PM,info@OCPCollective.org,,,,,33.716775,-117.917999,Orange
Omega Healthcare Collective,1800 E Garry Ave,Santa Ana,CA,92705,9498364833,10-7 M-Sat 12:20-4:20 on Sundays,Omegahcc@gmail.com,,,Yes,,33.704186,-117.852756,Orange
HLHC (HEALTHY LIVING HOSPICE CENTER),1800 E Garry Ave,Santa Ana,CA,92705,8665755430,10am to 8pm 7 days a week,,,,,,33.704186,-117.852756,Orange
Kush Kingdom 420,722 S Main St,Santa Ana,CA,92701,7148817054,"Monday - Saturday 11a-10p, Sunday 12p=8p",,,,,,33.738664,-117.86777,Orange
GHCC,2522 N Grand Ave,Santa Ana,CA,92705,7146280043,11 AM TO 9 PM,GHCC420@YAHOO.COM,,Yes,,Yes,33.7710197,-117.8524465,Orange
Riteway Wellness,1820 E Garry Ave,Santa Ana,CA,92705,9493224167,12-7pm Tuesday through Sunday. Closed Mondays,ritewayresearch@gmail.com,,Yes,,,33.704186,-117.852756,Orange
714 Collective - Santa Ana,Edinger/Main - Please call to pre verify,Santa Ana,CA,92707,,,,,,,,33.7023092,-117.8721676,Orange
Healthy Living Hospice Center (HLHC),1800 E Garry Ave,Santa Ana,CA,92705,8665755430,10am-8pm Daily,healthylivinghospicecenter@gmail.com,,Yes,,,33.704186,-117.852756,Orange
Herbal Alternative Therapy,1800 E McFadden Ave,Santa Ana,CA,92705,7146178250,7 days a week 11AM-7PM,rxinfo@hatsantaana.com,,,,,33.733479,-117.841887,Orange
MJ's Compassionate Care,13912 Ponderosa St,Santa Ana,CA,92705,7146132191,9am- 9pm,mblmtg@yahoo.com,,Yes,Yes,Yes,33.760786,-117.833142,Orange
Newport Mesa Patients Association,779 W 19th St,Costa Mesa,CA,92627,9498918289,10:00 am to 9:00 pm,newportmesapa@gmail.com,,Yes,Yes,Yes,33.64285,-117.931038,Orange
MedMar Patient Care Collective (MPCC),440 Fair Dr,Costa Mesa,CA,92626,7142419900,Mon-Fri  10am - 9pm  Sat/Sun 11am-8pm,medmarcollectivemain@gmail.com,http://www.medmarcares.com,Yes,,Yes,33.664237,-117.918135,Orange
Bulzi Rx Cooperative - New Location Coming Soon,3050 Bristol St,Costa Mesa,CA,92626,9494593770,COMING SOON!,bulzirx@gmail.com,http://www.bulzirx.com,Yes,Yes,Yes,33.683138,-117.884504,Orange
CMPA (Costa Mesa Patients Association),1755 Orange Ave,Costa Mesa,CA,92627,9496458382,Mon-Sat: 11am-8pm Sun:11am-5pm,join@costamesapatientsassociation.com,http://costamesapatientsassociation.com/,Yes,,,33.6369415,-117.9173785,Orange
Tri-County PCA,1812 Newport Blvd,Costa Mesa,CA,92627,9493105791,12pm to 10pm,endofthe55collective@gmail.com,,,,,33.640714,-117.918494,Orange
Dakini Collective,,Costa Mesa,CA,92627,7144210679,10am-10pm,info@dakinicollective.com,http://dakinicollective.com/,,,Yes,33.6496252,-117.9190418,Orange
Rite Greens- Now open at 7:00 AM! *First time patients get a free gram plus spin the prize wheel!*,1801 E Edinger Ave,Santa Ana,CA,92705,7145587167,7am-9pm Mon-Sun,ritegreens@att.net,http://www.ritegreens.com,Yes,,,33.727298,-117.842319,Orange
American Collective: Newport Beach / Costa Mesa Local's Choice Delivery Service,,Costa Mesa,CA,92627,7146002894,1 PM -10 PM  7 DAYS,,http://americancollective.com,,Yes,Yes,33.6496252,-117.9190418,Orange
GREEN BLOSSOM - DELIVERIES - ORANGE COUNTY - HUNTINGTON  - COSTA MESA -  WESTMINSTER - NEWPORT BEACH,,Huntington Beach,CA,92648,7146555962,"9AM - 10PM, FRI & SAT UNTIL MIDNIGHT FOR REGULARS",admin@greenblossom.net,http://www.greenblossom.net,,Yes,Yes,33.6781963,-118.0127534,Orange
Nature's Executive Outreach-OC DELIVERY - Offering New Patient Specials,,Huntington Beach,CA,92648,7148584372,10AM-8PM,cat@naturesexecutiveoutreach.com,http://www.naturesexecutiveoutreach.com,,,"Nature's Executive Outreach-OC Delivery                        
                        Yes",33.6781963,-118.0127534,Orange
Blazin Deliveries - $50 CAP ON ALL 4 GRAM EIGHTS-FREE JAR FOR NEW PATIENTS,,Costa Mesa,CA,92626,7144217245,Mon-Sun 12pm-Midnight,Hawkeyeavatar@live.com,http://www.blazindeliveries.com,,,"OC's Blazin Deliveries                        
                        Yes",33.6834142,-117.9073244,Orange
OC Weed Machine,,Costa Mesa,CA,92626,7149166789,1pm - 10pm 7 DAYS,,http://ocweedmachine.com,,Yes,Yes,33.6834142,-117.9073244,Orange
A Kind Delivery Service,,Huntington Beach,CA,92646,7146002894,1pm to 10pm:  7 days a week,,http://americancollective.com,,Yes,"The Kind Delivery Service                         
                        Yes",33.6690798,-117.9659037,Orange
1st Time Patients:BUY ONE 1/8 GET ONE FREE:Weekend Walk-In,newport blvd & 17th street,Costa Mesa,CA,92627,7145994064,2pm to 8pm : FRI-SAT-SUN-MON,,,Yes,Yes,Yes,33.6362984,-117.9219548,Orange
LiveWell,440 Fair Dr,Costa Mesa,CA,92626,7145490211,11am-8pm,office@livewelloc.com,,Yes,,,33.664237,-117.918135,Orange
Costa Mesa oc collective services,522 W 19th St,Costa Mesa,CA,92627,7149070397,10am to 9:00pm,,,Yes,,,33.643858,-117.920132,Orange
Canna Clinic of Garden Grove,9758 W Chapman Ave,Garden Grove,CA,92840,7145370420,11:30 - 8:00pm,johnsbcc@gmail.com,http://www.twitter.com/cannaclinic,,,,33.7884833,-117.9635489,Orange
WCC Patient Collective,7461 Garden Grove Blvd,Garden Grove,CA,92841,7149014600,11-8 weekdays 11-6 sat. closed sun. All major holidays closed,bryan@wcc420.com,http://www.wcc420.com,Yes,Yes,,33.7738783,-118.0018915,Orange
Green Hills Patients Association,13311 Garden Grove Blvd,Garden Grove,CA,92840,7147481111,Everyday 11AM -8PM,greenhillspa@gmail.com,,Yes,Yes,,33.7745526,-117.9007835,Orange
Golden State Patients Association (21 & over),12570 Brookhurst. St. #5,Garden Grove,CA,92841,7145303311,"Mon. - Sat. 11am-8pm , Sun. 12pm - 6pm",GoldenState@mail.com,,Yes,,,33.7897841,-117.9776173,Orange
3.6 Exclusive Collective $50 Cap Top Shelf Member Friendly Service,7351 Garden Grove Blvd,Garden Grove,CA,92841,7146504000,Mon-Sat 11:30-9:00 Sun 11:30-7:00 Closed Major Holidays,36collective@gmail.com,,Yes,Yes,,33.774718,-118.003269,Orange
Compassion Center,Call for address and preverification,Garden Grove,CA,92843,7148187253,11-10pm,,,Yes,,,33.7675239,-117.9424743,Orange
TOP SHELF 50/100 CAP BEACH BLVD/STANTON,10550 Beach Blvd,Stanton,CA,90680,7148261921,8-Oct,TAHAZ1@AOL.COM,HTTP://WWW.ALTERNATIVETOMATOES.COM,Yes,,Yes,33.8092103,-117.99305,Orange
"Garden Grove Nature Quest Medical DELIVERY , FREE GITS ALL DAY LONG, $50 1/8(951-323-9367)",,Garden Grove,CA,92840,9513239367,9am-11pm,naturesquestorders@gmail.com,http://naturesquestmedical.com,,Yes,Yes,33.7876938,-117.9336874,Orange
Unit D,11471 Brookhurst St,Garden Grove,CA,92840,7145909100,Mon-Sat 10 am to 8 pm Sun 10 am to 6 pm,,,,,,33.7961022,-117.958823,Orange
AAA Medical Collective of Garden Grove,12882 Western Ave,Garden Grove,CA,92841,7143483116,10am to 8pm-7days,BudHumidor@yahoo.com,,Yes,Yes,Yes,33.77516,-118.001055,Orange
INDEPENDENT COLLECTIVE OF ORANGE COUNTY (ICOC),24602 Raymond Way,Lake Forest,CA,92630,9498554420,"10-8 Mon - Sat, 11-7 Sun",jacks209@yahoo.com,,Yes,Yes,,33.6220045,-117.7017137,Orange
Lake Forest Community Collective,24602 Raymond Way,Lake Forest,CA,92630,9496907048,Monday-Saturday 11-9 Sunday 11-6,lakeforestcc@gmail.com,,Yes,Yes,,33.6220045,-117.7017137,Orange
"BCC of CA, a Non-Profit Patients Cooperative",23322 Peralta Dr,Laguna Hills,CA,92653,9497162649,Currently Closed,info@bcc420.occoxmail,,,,,33.623137,-117.723617,Orange
HUGS Collective,,Laguna Niguel,CA,92677,8774204847,10am-10pm,info@hugsdelivered.org,http://www.hugsdelivered.org/menu,,,Yes,33.5225261,-117.7075526,Orange
"L.L.M.D-We Carry~Fullerton Farmily,OMG,THCC ,DFO,Round Port,LINDO,CHWG,& Specialty Farms Medications",,Laguna Woods,CA,92651,9496986287,Monday - Sunday (8:00 A.M. to 11:00 P.M.),freeride@weedeliverfree.org,http://www.lagunalocalmd.org,,Yes,"Laguna Local Medication Delivery (L.L.M.D.)                        
                        (*Dial 949) Delivery:(949)698-6287                        
                        Yes",33.6103009,-117.7253305,Orange
Medical-Marijuana.com - DELIVERY throughout CA,,Anaheim,CA,92805,7144884610,8am-8pm or Online 24/7,info@medical-marijuana.com,http://www.medical-marijuana.com/,,,Yes,33.8276052,-117.9073244,Orange
Golden Angels Seniors' Collective,,Laguna Niguel,CA,92677,9493703638,Call,goldenangelssc@gmail.com,http://www.seniorscollective.org,,,Yes,33.5225261,-117.7075526,Orange
Tri-County Patient Collective (888) Danks-2U - SOC Fast Delivery,,Dana Point,CA,92629,8883265728,7 DAYS A WEEK 10AM TO 10PM,TCPC@XXXBLACKOUTXXXPRODUCTIONS.COM,HTTP://MYSPACE.COM/TCPCMED or DANKS2U.com,,,Yes,33.4605836,-117.7150526,Orange
OC Wilbur's,22151 Verdugo Dr,Laguna Hills,CA,92653,9492973997,Open at 10:30  Close at-7:30 MON-SAT CLOSED ALL DAY SUNDAY,ocwilbur@gmail.com,,Yes,,,33.6266953,-117.7291668,Orange
CARE MUTUAL,26730 Towne Centre Dr,Foothill Ranch,CA,92610,9492154467,10am to 9pm,,,Yes,,,33.673694,-117.662759,Orange
The Health Collective,24602 Raymond Way,Lake Forest,CA,92630,9493557841,m-s 9am-9pm sun 10-9,,,Yes,,,33.6220045,-117.7017137,Orange
Health & Wellness Center of Lake Forest,23072 Lake Center Dr,Lake Forest,CA,92630,9498591158,Call,,,,,,33.6274439,-117.716565,Orange
Lake Forest Wellness Center and Collective,24602 Raymond Way,Lake Forest,CA,92630,9494583663,9am-9pm,lfwcc@hotmail.com,,,,,33.6220045,-117.7017137,Orange
INDEPENDENT COLLECTIVE OF ORANGE COUNTY (ICOC),24602 Raymond Way,Lake Forest,CA,92630,9498554420,"10-8 Mon - Sat, 11-7 Sun",jacks209@yahoo.com,,Yes,Yes,,33.6220045,-117.7017137,Orange
Lake Forest Community Collective,24602 Raymond Way,Lake Forest,CA,92630,9496907048,Monday-Saturday 11-9 Sunday 11-6,lakeforestcc@gmail.com,,Yes,Yes,,33.6220045,-117.7017137,Orange
"BCC of CA, a Non-Profit Patients Cooperative",23322 Peralta Dr,Laguna Hills,CA,92653,9497162649,Currently Closed,info@bcc420.occoxmail,,,,,33.623137,-117.723617,Orange
HUGS Collective,,Laguna Niguel,CA,92677,8774204847,10am-10pm,info@hugsdelivered.org,http://www.hugsdelivered.org/menu,,,Yes,33.5225261,-117.7075526,Orange
"L.L.M.D-We Carry~Fullerton Farmily,OMG,THCC ,DFO,Round Port,LINDO,CHWG,& Specialty Farms Medications",,Laguna Woods,CA,92651,9496986287,Monday - Sunday (8:00 A.M. to 11:00 P.M.),freeride@weedeliverfree.org,http://www.lagunalocalmd.org,,Yes,"Laguna Local Medication Delivery (L.L.M.D.)                        
                        (*Dial 949) Delivery:(949)698-6287                        
                        Yes",33.6103009,-117.7253305,Orange
Medical-Marijuana.com - DELIVERY throughout CA,,Anaheim,CA,92805,7144884610,8am-8pm or Online 24/7,info@medical-marijuana.com,http://www.medical-marijuana.com/,,,Yes,33.8276052,-117.9073244,Orange
Golden Angels Seniors' Collective,,Laguna Niguel,CA,92677,9493703638,Call,goldenangelssc@gmail.com,http://www.seniorscollective.org,,,Yes,33.5225261,-117.7075526,Orange
Tri-County Patient Collective (888) Danks-2U - SOC Fast Delivery,,Dana Point,CA,92629,8883265728,7 DAYS A WEEK 10AM TO 10PM,TCPC@XXXBLACKOUTXXXPRODUCTIONS.COM,HTTP://MYSPACE.COM/TCPCMED or DANKS2U.com,,,Yes,33.4605836,-117.7150526,Orange
OC Wilbur's,22151 Verdugo Dr,Laguna Hills,CA,92653,9492973997,Open at 10:30  Close at-7:30 MON-SAT CLOSED ALL DAY SUNDAY,ocwilbur@gmail.com,,Yes,,,33.6266953,-117.7291668,Orange
CARE MUTUAL,26730 Towne Centre Dr,Foothill Ranch,CA,92610,9492154467,10am to 9pm,,,Yes,,,33.673694,-117.662759,Orange
The Health Collective,24602 Raymond Way,Lake Forest,CA,92630,9493557841,m-s 9am-9pm sun 10-9,,,Yes,,,33.6220045,-117.7017137,Orange
Health & Wellness Center of Lake Forest,23072 Lake Center Dr,Lake Forest,CA,92630,9498591158,Call,,,,,,33.6274439,-117.716565,Orange
Lake Forest Wellness Center and Collective,24602 Raymond Way,Lake Forest,CA,92630,9494583663,9am-9pm,lfwcc@hotmail.com,,,,,33.6220045,-117.7017137,Orange
CALICCG Discretion is our profession! 714.272.4585,,Irvine,CA,92606,7142724585,10am to ?   FREE DELIVERY,donations@caliccg.com,http://www.caliccg.com,,,Yes,33.6978447,-117.8164888,Orange
THE HEALING CENTER,17165 Von Karman Ave,Irvine,CA,92606,9497519106,12-8 Every day!,Bigvbaby27@gmail.com,,Yes,Yes,,33.6912052,-117.8406013,Orange
Trinity Holistic Center,,Irvine,CA,92618,9497936074,Mon-Fri 10AM-8PM Sat 10AM-7PM Sun Closed,trinityholisticcenter@gmail.com,http://trinityholisticcenter.com,,,Yes,33.6709332,-117.7256083,Orange
SOCCA - You will not find this high of a quality med for such a low donation anywhere,71 Fortune Rd,Irvine,CA,92618,8663213459,Open 7 Days A week,Info@bestmeds.org,http://bestmeds.org/,,,,33.651262,-117.746723,Orange
Compassionate Solutions Cooperative - S. OC FREE PROFESSIONAL DELIVERY SERVICE. 100% organic,,Irvine,CA,92618,8775509333,10am - 9pm 7 days a week,staff@cs-coop.org,http://cs-coop.org,,Yes,Yes,33.6709332,-117.7256083,Orange
215DELIVERIES.COM - Orange County,,Irvine,CA,92618,7142924202,"10am-10pm, 7 Days a Week",215deliveries@gmail.com,http://www.215deliveries.com/,,,"215Deliveries.com - Orange County                        
                        Yes",33.6709332,-117.7256083,Orange
Rite Greens- Now open at 7:00 AM! *First time patients get a free gram plus spin the prize wheel!*,1801 E Edinger Ave,Santa Ana,CA,92705,7145587167,7am-9pm Mon-Sun.,ritegreens@att.net,http://www.ritegreens.com,Yes,Yes,,33.727298,-117.842319,Orange
INDEPENDENT COLLECTIVE OF ORANGE COUNTY (ICOC),24602 Raymond Way,Lake Forest,CA,92630,9498554420,"10-8 Mon - Sat, 11-7 Sun",jacks209@yahoo.com,,Yes,Yes,,33.6220045,-117.7017137,Orange
Lake Forest Community Collective,24602 Raymond Way,Lake Forest,CA,92630,9496907048,Monday-Saturday 11-9 Sunday 11-6,lakeforestcc@gmail.com,,Yes,Yes,,33.6220045,-117.7017137,Orange
"BCC of CA, a Non-Profit Patients Cooperative",23322 Peralta Dr,Laguna Hills,CA,92653,9497162649,Currently Closed,info@bcc420.occoxmail,,,,,33.623137,-117.723617,Orange
HUGS Collective,,Laguna Niguel,CA,92677,8774204847,10am-10pm,info@hugsdelivered.org,http://www.hugsdelivered.org/menu,,,Yes,33.5225261,-117.7075526,Orange
"L.L.M.D-We Carry~Fullerton Farmily,OMG,THCC ,DFO,Round Port,LINDO,CHWG,& Specialty Farms Medications",,Laguna Woods,CA,92651,9496986287,Monday - Sunday (8:00 A.M. to 11:00 P.M.),freeride@weedeliverfree.org,http://www.lagunalocalmd.org,,Yes,"Laguna Local Medication Delivery (L.L.M.D.)                        
                        (*Dial 949) Delivery:(949)698-6287                        
                        Yes",33.6103009,-117.7253305,Orange
Medical-Marijuana.com - DELIVERY throughout CA,,Anaheim,CA,92805,7144884610,8am-8pm or Online 24/7,info@medical-marijuana.com,http://www.medical-marijuana.com/,,,Yes,33.8276052,-117.9073244,Orange
Golden Angels Seniors' Collective,,Laguna Niguel,CA,92677,9493703638,Call,goldenangelssc@gmail.com,http://www.seniorscollective.org,,,Yes,33.5225261,-117.7075526,Orange
OC Wilbur's,22151 Verdugo Dr,Laguna Hills,CA,92653,9492973997,Open at 10:30  Close at-7:30 MON-SAT CLOSED ALL DAY SUNDAY,ocwilbur@gmail.com,,Yes,,,33.6266953,-117.7291668,Orange
CARE MUTUAL,26730 Towne Centre Dr,Foothill Ranch,CA,92610,9492154467,10am to 9pm,,,Yes,,,33.673694,-117.662759,Orange
The Health Collective,24602 Raymond Way,Lake Forest,CA,92630,9493557841,m-s 9am-9pm sun 10-9,,,Yes,,,33.6220045,-117.7017137,Orange
Health & Wellness Center of Lake Forest,23072 Lake Center Dr,Lake Forest,CA,92630,9498591158,Call,,,,,,33.6274439,-117.716565,Orange
Lake Forest Wellness Center and Collective,24602 Raymond Way,Lake Forest,CA,92630,9494583663,9am-9pm,lfwcc@hotmail.com,,,,,33.6220045,-117.7017137,Orange
Beach Cities Collective Capo Beach,26841 Calle Hermosa,Capistrano Beach,CA,92624,9494815046,mon-sat 10:00am-7:00pm closed Sunday,beachcitiescollective@gmail.com,,Yes,,,33.4543455,-117.6614345,Orange
Holistic Health Collective - Dana Point,24582 Del Prado,Dana Point,CA,92629,9495427722,10:00AM-7:00PM Mon. - Sat. Sunday 12:00 - 5:00,garrisonwilliams@cox.net,,Yes,,Yes,33.465207,-117.700851,Orange
Newport Mesa Patients Association,779 W 19th St,Costa Mesa,CA,92627,9498918289,10:00 am to 9:00 pm,newportmesapa@gmail.com,,Yes,Yes,Yes,33.64285,-117.931038,Orange
MedMar Patient Care Collective (MPCC),440 Fair Dr,Costa Mesa,CA,92626,7142419900,Mon-Fri  10am - 9pm  Sat/Sun 11am-8pm,medmarcollectivemain@gmail.com,http://www.medmarcares.com,Yes,,Yes,33.664237,-117.918135,Orange
Bulzi Rx Cooperative - New Location Coming Soon,3050 Bristol St,Costa Mesa,CA,92626,9494593770,COMING SOON!,bulzirx@gmail.com,http://www.bulzirx.com,Yes,Yes,Yes,33.683138,-117.884504,Orange
CMPA (Costa Mesa Patients Association),1755 Orange Ave,Costa Mesa,CA,92627,9496458382,Mon-Sat: 11am-8pm Sun:11am-5pm,join@costamesapatientsassociation.com,http://costamesapatientsassociation.com/,Yes,,,33.6369415,-117.9173785,Orange
Tri-County PCA,1812 Newport Blvd,Costa Mesa,CA,92627,9493105791,12pm to 10pm,endofthe55collective@gmail.com,,,,,33.640714,-117.918494,Orange
Dakini Collective,,Costa Mesa,CA,92627,7144210679,10am-10pm,info@dakinicollective.com,http://dakinicollective.com/,,,Yes,33.6496252,-117.9190418,Orange
Rite Greens- Now open at 7:00 AM! *First time patients get a free gram plus spin the prize wheel!*,1801 E Edinger Ave,Santa Ana,CA,92705,7145587167,7am-9pm Mon-Sun,ritegreens@att.net,http://www.ritegreens.com,Yes,,,33.727298,-117.842319,Orange
American Collective: Newport Beach / Costa Mesa Local's Choice Delivery Service,,Costa Mesa,CA,92627,7146002894,1 PM -10 PM  7 DAYS,,http://americancollective.com,,Yes,Yes,33.6496252,-117.9190418,Orange
GREEN BLOSSOM - DELIVERIES - ORANGE COUNTY - HUNTINGTON  - COSTA MESA -  WESTMINSTER - NEWPORT BEACH,,Huntington Beach,CA,92648,7146555962,"9AM - 10PM, FRI & SAT UNTIL MIDNIGHT FOR REGULARS",admin@greenblossom.net,http://www.greenblossom.net,,Yes,Yes,33.6781963,-118.0127534,Orange
Nature's Executive Outreach-OC DELIVERY - Offering New Patient Specials,,Huntington Beach,CA,92648,7148584372,10AM-8PM,cat@naturesexecutiveoutreach.com,http://www.naturesexecutiveoutreach.com,,,"Nature's Executive Outreach-OC Delivery                        
                        Yes",33.6781963,-118.0127534,Orange
Blazin Deliveries - $50 CAP ON ALL 4 GRAM EIGHTS-FREE JAR FOR NEW PATIENTS,,Costa Mesa,CA,92626,7144217245,Mon-Sun 12pm-Midnight,Hawkeyeavatar@live.com,http://www.blazindeliveries.com,,,"OC's Blazin Deliveries                        
                        Yes",33.6834142,-117.9073244,Orange
OC Weed Machine,,Costa Mesa,CA,92626,7149166789,1pm - 10pm 7 DAYS,,http://ocweedmachine.com,,Yes,Yes,33.6834142,-117.9073244,Orange
A Kind Delivery Service,,Huntington Beach,CA,92646,7146002894,1pm to 10pm:  7 days a week,,http://americancollective.com,,Yes,"The Kind Delivery Service                         
                        Yes",33.6690798,-117.9659037,Orange
1st Time Patients:BUY ONE 1/8 GET ONE FREE:Weekend Walk-In,newport blvd & 17th street,Costa Mesa,CA,92627,7145994064,2pm to 8pm : FRI-SAT-SUN-MON,,,Yes,Yes,Yes,33.6362984,-117.9219548,Orange
LiveWell,440 Fair Dr,Costa Mesa,CA,92626,7145490211,11am-8pm,office@livewelloc.com,,Yes,,,33.664237,-117.918135,Orange
Costa Mesa oc collective services,522 W 19th St,Costa Mesa,CA,92627,7149070397,10am to 9:00pm,,,Yes,,,33.643858,-117.920132,Orange
Sea and Sand Collective (SSC) - Sunset Beach,17191 Pacific Coast Hwy,Huntington Beach,CA,92649,5623706734,Mon. - Fri. 11:00AM - 8:00PM Sat. - Sun. 11:00AM - 5:00PM,,,Yes,,,33.712411,-118.064342,Orange
215DELIVERIES.COM - Orange County,,Newport Beach,CA,92663,7142924202,"10am-10pm, 7 Days a Week",215deliveries@gmail.com,http://www.215deliveries.com/,,,"215Deliveries.com - Orange County                        
                        Yes",33.6186912,-117.9190418,Orange
GREEN BLOSSOM - WEST - HB - WESTMINSTER - GARDEN GROVE - IRVINE - SUNSET BEACH - SEAL BEACH - OC,,Huntington Beach,CA,92647,7146555962,9AM - 10PM DAILY; FRI & SAT UNTIL MIDNITE FOR REGULARS,ADMIN@GREENBLOSSOM.NET,http://WWW.GREENBLOSSOM.NET,,Yes,Yes,33.7222674,-118.0010421,Orange
Nature's Executive Outreach-OC DELIVERY,,Huntington Beach,CA,92648,7148584372,10AM-8PM,cat@naturesexecutiveoutreach.com,http://www.naturesexecutiveoutreach.com,,Yes,Yes,33.6781963,-118.0127534,Orange
West County Patient Collective Association,16722 Pacific Coast Hwy,Huntington Beach,CA,92649,8772372005,,,,,,,33.7192886,-118.0717671,Orange
Sunset Beach Patients Association,16837 Pacific Coast Hwy,Huntington Beach,CA,92649,,COMING SOON!,,,Yes,Yes,,33.717459,-118.070097,Orange
Ocean Beach Collective,4852 Voltaire St,San Diego,CA,92107,6192263300,Sun. 10-6   Mon-Sat. 10-8,,,,,,32.750644,-117.243876,San Diego
Cloud 9 Co-op The Only Shop With The CLOUD 9 KUSH~,5029 W Point Loma Blvd,San Diego,CA,92107,6192259128,9am-9pm everyday!,cloud9coop@gmail.com,http://www.cloud9medical.org,Yes,Yes,,32.75354,-117.246087,San Diego
$55 CAP! green light  $30 to 40 1/8 Specials!  GREEN LIGHT COLLECTIVE,4967 Newport Ave,San Diego,CA,92107,6194080198,Monday to Saturday 10am to 8  Sunday 12pm to 8pm,,,,,,32.7464115,-117.2505941,San Diego
New Earth Beginnings,4905 Savannah St,San Diego,CA,92110,6192761008,Mon-Sat. 12-8,info@newearthbeginnings.com,http://newearthbeginnings.com,,,,32.7714746,-117.2024449,San Diego
Green Gardens Patients Association *FREE GRAM FIRST 3 VISITS*,1251 Rosecrans St,San Diego,CA,92106,6192210155,10am - 10pm  Everyday,info@greengardens.org,http://www.greengardens.org,Yes,Yes,,32.7232861,-117.2303055,San Diego
Wisdom Organics,5423 Linda Vista Rd,San Diego,CA,92110,6192720240,Mon-Sat 11-9 Sunday 12-4,,,,,,32.7674329,-117.194728,San Diego
Canna Collective: The Cultivators Collective...,Ocean Beach,Ocean Beach,CA,92107,6195231974,Appointment Only,,,Yes,,,32.74444,-117.251958,San Diego
OCEAN BEACH MENDICA COLLECTIVE $55 CAP ALL THE TIME,4976 Newport Ave,San Diego,CA,92107,6197645464,10am-8pm mon-sat sun10am-7pm,ob.mendica@gmail.com,,,,,32.746818,-117.250379,San Diego
San Diego Holistic Healing**SUNDAY SPECIAL-$5 OFF PER EIGHTH (MAX 2)**,5544 La Jolla Blvd,La Jolla,CA,92037,8584123105,MON-SAT... 10AM-9PM                SUN....10AM-7PM,sandiegoholistichealing@gmail.com,http://legalmarijuanadispensary.com/index.php?option=com_content&view=article&catid=140:pacific-beach-cannabis-clubs&id=2336:san-diego-holistic-healing-&Itemid=118,Yes,Yes,,32.813118,-117.269332,San Diego
High Tide Caregivers Co-Op  ***SONOMA KUSH IS BACK***,6902 La Jolla Blvd,San Diego,CA,92037,8587299927,"11:00AM-8PM M-SAT, SUN 11-6",hightidecaregivers@gmail.com,,Yes,,,32.8320533,-117.276684,San Diego
Forty Two Caregivers,861 Hornblend St,San Diego,CA,92109,8582709900,Hours 10a-9p daily      CLOSED FOR LUNCH 1:30PM-2:30PM,fortytwo420@gmail.com,,Yes,Yes,,32.7959205,-117.25388,San Diego
Green Kross Co-Operative...NEW 55 1/8 CAP!!!,3415 Mission Blvd,San Diego,CA,92109,8584125944,10-10 daily,thegreenkross@gmail.com,http://greenkrosscoop.com,,,,32.776566,-117.252191,San Diego
San Diego Organic Wellness Association -Free Joint Sunday!-,1150 Garnet Ave,San Diego,CA,92109,8587502401,10:30am - 9:00pm Mon - Sun,sdowa420@gmail.com,http://www.sandiegoorganicwellnessassociation.org,,,,32.7980404,-117.248855,San Diego
Gourmet Green Room. OG KUSH $50 1/8th ALL DAY!!,5121 Santa Fe St,San Diego,CA,92109,8582739300,9am to 9pm,ggrpacificbeach@gmail.com,,,Yes,,32.8187775,-117.2251649,San Diego
SOCAL AMC $35 TOP SHELF CAP,1940 Garnet Ave,San Diego,CA,92109,7607165266,OPEN TUE-SAT 12PM-9PM CLOSED SUN MON,SOCALAMC@GMAIL.COM,,Yes,Yes,,32.801491,-117.234465,San Diego
GRAND ORGANICS COOPERATIVE $50caps,4502 Cass St,San Diego,CA,92109,8584909222,EVERYDAY 10:00 - 8:00,grandorganics@gmail.com,http://www.GrandOrganics.Org,Yes,,,32.7976374,-117.2520581,San Diego
La Jolla Medicinal Cooperative,737 Pearl St,San Diego,CA,92037,8584590116,Mon-Sat 11:00 a.m.-9:00 p.m.,coop@lajollamc.org,http://www.LaJollamc.org,Yes,,,32.8397729,-117.2755569,San Diego
Fresh Selection Cooperative,841 Turquoise St,San Diego,CA,92109,8587464207,Mon-Sat. 10am-9pm  11am-7pm Sun,getyourmeds@freshselection.org,,Yes,,,32.8086897,-117.2583389,San Diego
DONATE 110 GET A HALF EIGHTH!!!  DONATE 175 GET A FULL EIGHTH!!!  DONATE 300 GET 5.7G!!!! DONATE 350,2950 Garnet Ave,San Diego,CA,92109,8582724377,10AM-8PM,INFO@PURPLEHOLISTICGARDENS.COM,HTTP://PURPLEHOLISTICGARDENS.COM,Yes,Yes,,32.8064798,-117.2175071,San Diego
Sons of Beaches 420 Collective  3841 Mission Blvd San Diego 858-488-9420 open 11am - 7pm daily,3841 Mission Blvd,San Diego,CA,92109,8584889420,11 am - 7 pm Mon-Sat; 11 - 6 pm Sun,info@sonsofbeaches.org,http://sonsofbeaches.org/,,Yes,,32.7852652,-117.2529825,San Diego
La Playa Collective,1571 La Playa Ave,San Diego,CA,92109,8582245580,8-Nov,laplayacollective@gmail.com,,Yes,,,32.788542,-117.237828,San Diego
Pacific Beach Collective,929 Turquoise St,San Diego,CA,92109,8584884047,Mon-Sat  10 a.m. to 10 p.m.  Sundays 10 a.m. - 7 p.m.,,,,Yes,,32.8091325,-117.2567822,San Diego
PACIFIC BEACH 420 CARE CENTER,2705 Garnet Ave,San Diego,CA,92109,8582700420,11am-9pm Mon-Sat,info@pb420.com,,,,,32.8054984,-117.2209096,San Diego
AGAPE COLLECTIVE,1421 Garnet Ave,San Diego,CA,92109,8582724372,"OPEN EVERYDAY...PLEASE CALL FOR HOURS OF OPERATION,OUR FRIENDLY STAFF IS AWAITING YOUR CALL!",agapecollective@gmail.com,,Yes,,,32.7990675,-117.2440212,San Diego
Pacific Beach Medical CO-OP,4676 Cass St,San Diego,CA,92109,8585813265,Monday-Saturday 11:00am-8:00pm,pacificbeachmedicalco-op@gmail.com,,,,,32.7997131,-117.2525726,San Diego
Co-op / Coopperative,4655 Mission Blvd,San Diego,CA,92109,6192063359,10-8pm,mattgreen1@cox.net,http://www.docgreensfarmacy.com,Yes,,,32.7987514,-117.2560233,San Diego
Farm Associated Collective *** Patient Appreciation Everyday***,6070 Mt. Alifan Dr. # 202 (Behind Coco's & Next Door to Veteran Real Estate),San Diego,CA,92111,6194814111,M-Th: 10a-8p F: 10a-9p Sa: 10a-8p Su: 11a-7p,420hero@gmail.com,,Yes,,,32.8020115,-117.1676501,San Diego
COLLECTIVELY SPEAKING - SUNDAY FUN DAY! OZSPECIALS!! FREE 8TH WITH $100 DONATION!!!,5125 Convoy St,San Diego,CA,92111,8585732773,11am - 9 pm,collectivelysd@gmail.com,,Yes,Yes,,32.835029,-117.152056,San Diego
San Diego Green Care Collective,4488 Convoy St,San Diego,CA,92111,8582788488,"Mon-Sat.10am-10pm,     Sun.11am - 8pm",sdgcare@gmail.com,http://legalmarijuanadispensary.com/index.php?option=com_content&view=article&catid=121:north-san-diego-cannabis-clubs&id=2157:san-diego-green-care-collective&Itemid=118,Yes,,,32.821381,-117.15549,San Diego
Green Joy- GREAT DAILY SPECIALS!!,4633 Convoy St,San Diego,CA,92111,8582684488,10 A.M- 10 P.M,greenjoysd@yahoo.com,http://comingsoon.com,,,,32.824728,-117.154563,San Diego
Earth Medical Collective INC. (EMC),7933 Balboa Ave,San Diego,CA,92111,8582771088,Mon-Sat: 10am-9pm Sun: 10am-8pm,www.earthmedicalcollective@gmail.com,http://www.earthmedicalcollective.com,Yes,Yes,,32.8217088,-117.152423,San Diego
